{
"type": "FeatureCollection",
"name": "flickr_data",
"crs": { "type": "name", "properties": { "name": "urn:ogc:def:crs:OGC:1.3:CRS84" } },
"features": [
{ "type": "Feature", "properties": { "id": 9779, "photo_id": "7256292040", "owner": "8704943@N07", "title": "Płyta kominkowa", "accuracy": 16, "place_id": "hJ5sx5ZUU7OdGVc", "tags": "museum poland polska muzeum poznań poznan wielkopolska wielkopolskie", "lat": 52.408617, "lon": 16.933922, "data": "2012-05-04 12:12:10" }, "geometry": { "type": "Point", "coordinates": [ 16.933921999997796, 52.408616999992475 ] } },
{ "type": "Feature", "properties": { "id": 9781, "photo_id": "7256297246", "owner": "8704943@N07", "title": "Odwach", "accuracy": 16, "place_id": "hJ5sx5ZUU7OdGVc", "tags": "building architecture square market poland polska rynek poznań poznan architektura budynek plac wielkopolska wielkopolskie", "lat": 52.407998, "lon": 16.932635, "data": "2012-05-04 11:14:29" }, "geometry": { "type": "Point", "coordinates": [ 16.932634999997795, 52.407997999992453 ] } },
{ "type": "Feature", "properties": { "id": 9782, "photo_id": "7249993414", "owner": "8704943@N07", "title": "Stary Rynek", "accuracy": 16, "place_id": "hJ5sx5ZUU7OdGVc", "tags": "house building architecture square market dom poland polska rynek poznań poznan architektura budynek plac wielkopolska kamienica wielkopolskie", "lat": 52.408002, "lon": 16.932892, "data": "2012-05-04 11:12:57" }, "geometry": { "type": "Point", "coordinates": [ 16.932891999997793, 52.40800199999245 ] } },
{ "type": "Feature", "properties": { "id": 9783, "photo_id": "7377449266", "owner": "65172383@N06", "title": "Łąka", "accuracy": 14, "place_id": "NAcWl6hUU74GcNA", "tags": "flowers nature colors closeup bokeh meadow kwiaty łąka", "lat": 52.471096, "lon": 16.928322, "data": "2011-08-03 08:28:04" }, "geometry": { "type": "Point", "coordinates": [ 16.928321999997792, 52.471095999992357 ] } },
{ "type": "Feature", "properties": { "id": 9784, "photo_id": "7249997952", "owner": "8704943@N07", "title": "Kamienica", "accuracy": 16, "place_id": "hJ5sx5ZUU7OdGVc", "tags": "house building architecture dom poland polska poznań poznan architektura budynek wielkopolska kamienica wielkopolskie", "lat": 52.406771, "lon": 16.923891, "data": "2012-05-04 10:52:19" }, "geometry": { "type": "Point", "coordinates": [ 16.923890999997749, 52.406770999992254 ] } },
{ "type": "Feature", "properties": { "id": 9785, "photo_id": "7374916706", "owner": "80117130@N03", "title": "Polonia 2007 - 20", "accuracy": 9, "place_id": "NAcWl6hUU74GcNA", "tags": "sardegna folk terra mea cagliari ballo unica gruppo coro culturale associazione tenore cuncordu ersu gruppoballo sudentesca terramea", "lat": 52.417916, "lon": 16.921691, "data": "2007-08-25 10:45:20" }, "geometry": { "type": "Point", "coordinates": [ 16.921690999997743, 52.417915999992211 ] } },
{ "type": "Feature", "properties": { "id": 9890, "photo_id": "7414146176", "owner": "60766534@N06", "title": "DSC07273", "accuracy": 12, "place_id": "hJ5sx5ZUU7OdGVc", "tags": null, "lat": 52.411424, "lon": 16.938686, "data": "2012-06-10 16:05:35" }, "geometry": { "type": "Point", "coordinates": [ 16.938685999997826, 52.411423999992572 ] } },
{ "type": "Feature", "properties": { "id": 9806, "photo_id": "7250000790", "owner": "8704943@N07", "title": "Herb", "accuracy": 16, "place_id": "hJ5sx5ZUU7OdGVc", "tags": "detail architecture heraldry coatofarms university poland polska herb poznań poznan detal architektura uniwersytet wielkopolska szczegół wielkopolskie szczegol heraldyka", "lat": 52.406751, "lon": 16.925028, "data": "2012-05-04 10:25:37" }, "geometry": { "type": "Point", "coordinates": [ 16.925027999997756, 52.406750999992276 ] } },
{ "type": "Feature", "properties": { "id": 9807, "photo_id": "7189471745", "owner": "64311670@N08", "title": "Takie rzeczy", "accuracy": 16, "place_id": "FKX3vbJUULr1s.A", "tags": "square squareformat rise iphoneography instagramapp uploaded:by=instagram foursquare:venue=4ea1ba5802d529c11650736c", "lat": 52.451868, "lon": 16.84957, "data": "2012-06-15 15:33:08" }, "geometry": { "type": "Point", "coordinates": [ 16.849569999997378, 52.451867999990426 ] } },
{ "type": "Feature", "properties": { "id": 9808, "photo_id": "7189047091", "owner": "32193144@N08", "title": null, "accuracy": 13, "place_id": "hJ5sx5ZUU7OdGVc", "tags": null, "lat": 52.413074, "lon": 16.941175, "data": "2012-06-15 11:17:27" }, "geometry": { "type": "Point", "coordinates": [ 16.941174999997834, 52.41307399999264 ] } },
{ "type": "Feature", "properties": { "id": 9810, "photo_id": "7372741496", "owner": "13053872@N00", "title": "10GOPR4319", "accuracy": 13, "place_id": "NAcWl6hUU74GcNA", "tags": null, "lat": 52.397522, "lon": 16.858348, "data": "2012-06-14 18:19:18" }, "geometry": { "type": "Point", "coordinates": [ 16.858347999997406, 52.397521999990673 ] } },
{ "type": "Feature", "properties": { "id": 9811, "photo_id": "7187511689", "owner": "13053872@N00", "title": "08GOPR4340", "accuracy": 13, "place_id": "NAcWl6hUU74GcNA", "tags": null, "lat": 52.397391, "lon": 16.858434, "data": "2012-06-14 18:30:30" }, "geometry": { "type": "Point", "coordinates": [ 16.858433999997406, 52.39739099999067 ] } },
{ "type": "Feature", "properties": { "id": 9812, "photo_id": "7438918994", "owner": "12775297@N06", "title": "Skiking, my new favorite sport.  Malta Poznań, rolki Skike V07-120", "accuracy": 14, "place_id": "NAcWl6hUU74GcNA", "tags": "poland skate poznan nordicskating skike skiking", "lat": 52.39997, "lon": 16.981816, "data": "2012-06-25 11:13:08" }, "geometry": { "type": "Point", "coordinates": [ 16.98181599999802, 52.399969999993459 ] } },
{ "type": "Feature", "properties": { "id": 9813, "photo_id": "7435804142", "owner": "79691978@N02", "title": "ET22-649 Poznan Glowny", "accuracy": 13, "place_id": "NAcWl6hUU74GcNA", "tags": null, "lat": 52.402052, "lon": 16.911907, "data": "2012-05-02 14:12:48" }, "geometry": { "type": "Point", "coordinates": [ 16.911906999997687, 52.402051999991983 ] } },
{ "type": "Feature", "properties": { "id": 9814, "photo_id": "7435794916", "owner": "79691978@N02", "title": "ET22-207 Poznan Glowny", "accuracy": 13, "place_id": "NAcWl6hUU74GcNA", "tags": null, "lat": 52.401816, "lon": 16.911821, "data": "2012-05-02 12:07:41" }, "geometry": { "type": "Point", "coordinates": [ 16.911820999997687, 52.401815999991975 ] } },
{ "type": "Feature", "properties": { "id": 9815, "photo_id": "7435812404", "owner": "79691978@N02", "title": "ET22-960 Poznan Glowny", "accuracy": 13, "place_id": "NAcWl6hUU74GcNA", "tags": null, "lat": 52.40213, "lon": 16.911821, "data": "2012-05-02 14:14:08" }, "geometry": { "type": "Point", "coordinates": [ 16.911820999997687, 52.402129999991985 ] } },
{ "type": "Feature", "properties": { "id": 9817, "photo_id": "7435786830", "owner": "79691978@N02", "title": "ET22-871 Poznan Glowny", "accuracy": 13, "place_id": "NAcWl6hUU74GcNA", "tags": null, "lat": 52.401947, "lon": 16.911735, "data": "2012-05-02 11:55:48" }, "geometry": { "type": "Point", "coordinates": [ 16.911734999997684, 52.401946999991985 ] } },
{ "type": "Feature", "properties": { "id": 9818, "photo_id": "7435760916", "owner": "79691978@N02", "title": "ET22 1123 ET22 772 & ET22 1024 Poznan Glowny", "accuracy": 13, "place_id": "NAcWl6hUU74GcNA", "tags": null, "lat": 52.404277, "lon": 16.912422, "data": "2012-05-01 17:38:26" }, "geometry": { "type": "Point", "coordinates": [ 16.91242199999769, 52.40427699999 ] } },
{ "type": "Feature", "properties": { "id": 9819, "photo_id": "7435742876", "owner": "79691978@N02", "title": "ET22-125 Poznan Glowny", "accuracy": 13, "place_id": "NAcWl6hUU74GcNA", "tags": null, "lat": 52.401711, "lon": 16.911649, "data": "2012-05-01 17:32:12" }, "geometry": { "type": "Point", "coordinates": [ 16.911648999997688, 52.40171099999197 ] } },
{ "type": "Feature", "properties": { "id": 9820, "photo_id": "7435725394", "owner": "79691978@N02", "title": "ET22-990 Poznan Glowny", "accuracy": 13, "place_id": "NAcWl6hUU74GcNA", "tags": null, "lat": 52.404487, "lon": 16.912164, "data": "2012-05-01 07:22:47" }, "geometry": { "type": "Point", "coordinates": [ 16.912163999997688, 52.404486999991995 ] } },
{ "type": "Feature", "properties": { "id": 9821, "photo_id": "7435768486", "owner": "79691978@N02", "title": "ET22-990 Poznan Glowny", "accuracy": 13, "place_id": "NAcWl6hUU74GcNA", "tags": null, "lat": 52.401738, "lon": 16.911735, "data": "2012-05-02 09:02:43" }, "geometry": { "type": "Point", "coordinates": [ 16.911734999997684, 52.40173799999198 ] } },
{ "type": "Feature", "properties": { "id": 9822, "photo_id": "7435733194", "owner": "79691978@N02", "title": "ET22-772 Poznan Glowny", "accuracy": 13, "place_id": "NAcWl6hUU74GcNA", "tags": null, "lat": 52.402052, "lon": 16.911735, "data": "2012-05-01 07:23:11" }, "geometry": { "type": "Point", "coordinates": [ 16.911734999997687, 52.402051999991983 ] } },
{ "type": "Feature", "properties": { "id": 9823, "photo_id": "7435751836", "owner": "79691978@N02", "title": "ET22-117 & SA134-008 Poznan Glowny", "accuracy": 13, "place_id": "NAcWl6hUU74GcNA", "tags": null, "lat": 52.402104, "lon": 16.911993, "data": "2012-05-01 17:34:12" }, "geometry": { "type": "Point", "coordinates": [ 16.911992999997686, 52.402103999991986 ] } },
{ "type": "Feature", "properties": { "id": 9824, "photo_id": "7435619384", "owner": "79691978@N02", "title": "ET22-1165 Poznan Glowny", "accuracy": 14, "place_id": "NAcWl6hUU74GcNA", "tags": "poland rail railway locomotive poznan pkp glowny et22", "lat": 52.404605, "lon": 16.912293, "data": "2012-04-29 06:20:42" }, "geometry": { "type": "Point", "coordinates": [ 16.912292999997689, 52.404604999991989 ] } },
{ "type": "Feature", "properties": { "id": 9825, "photo_id": "7435641750", "owner": "79691978@N02", "title": "ET22-649 & ET22-125 Poznan Glowny", "accuracy": 14, "place_id": "NAcWl6hUU74GcNA", "tags": "poland rail railway locomotive poznan pkp glowny et22", "lat": 52.403845, "lon": 16.911993, "data": "2012-04-29 06:28:16" }, "geometry": { "type": "Point", "coordinates": [ 16.911992999997686, 52.403844999991989 ] } },
{ "type": "Feature", "properties": { "id": 9826, "photo_id": "7435592770", "owner": "79691978@N02", "title": "ET22-916 & SU45 089 Poznan Glowny", "accuracy": 14, "place_id": "NAcWl6hUU74GcNA", "tags": "engine poland rail railway locomotive poznan pkp et22 su45", "lat": 52.399041, "lon": 16.91092, "data": "2012-04-28 07:10:54" }, "geometry": { "type": "Point", "coordinates": [ 16.910919999997681, 52.399040999991954 ] } },
{ "type": "Feature", "properties": { "id": 9827, "photo_id": "7435608702", "owner": "79691978@N02", "title": "ET22-707 Poznan Glowny", "accuracy": 14, "place_id": "NAcWl6hUU74GcNA", "tags": "poland rail railway poznan pkp glowny et22", "lat": 52.400716, "lon": 16.912078, "data": "2012-04-29 06:13:08" }, "geometry": { "type": "Point", "coordinates": [ 16.912077999997688, 52.400715999991995 ] } },
{ "type": "Feature", "properties": { "id": 9828, "photo_id": "7435601232", "owner": "79691978@N02", "title": "ET22-1029 Poznan Glowny", "accuracy": 14, "place_id": "NAcWl6hUU74GcNA", "tags": "poland locomotive poznan pkp et22", "lat": 52.400127, "lon": 16.91122, "data": "2012-04-28 07:13:46" }, "geometry": { "type": "Point", "coordinates": [ 16.91121999999768, 52.400126999991969 ] } },
{ "type": "Feature", "properties": { "id": 9829, "photo_id": "7435630624", "owner": "79691978@N02", "title": "ET22-125 Poznan Glowny", "accuracy": 14, "place_id": "NAcWl6hUU74GcNA", "tags": "poland rail railway locomotive poznan pkp glowny et22", "lat": 52.403885, "lon": 16.911907, "data": "2012-04-29 06:27:08" }, "geometry": { "type": "Point", "coordinates": [ 16.911906999997687, 52.40388499999198 ] } },
{ "type": "Feature", "properties": { "id": 9830, "photo_id": "7433375276", "owner": "20073461@N02", "title": null, "accuracy": 16, "place_id": "hJ5sx5ZUU7OdGVc", "tags": null, "lat": 52.402333, "lon": 16.9275, "data": "2012-06-24 17:00:26" }, "geometry": { "type": "Point", "coordinates": [ 16.927499999997764, 52.402332999992325 ] } },
{ "type": "Feature", "properties": { "id": 9831, "photo_id": "7433370676", "owner": "20073461@N02", "title": "piknikowo...", "accuracy": 16, "place_id": "hJ5sx5ZUU7OdGVc", "tags": null, "lat": 52.408, "lon": 16.924167, "data": "2012-06-24 16:24:12" }, "geometry": { "type": "Point", "coordinates": [ 16.924166999997752, 52.407999999992271 ] } },
{ "type": "Feature", "properties": { "id": 9832, "photo_id": "7433358524", "owner": "20073461@N02", "title": null, "accuracy": 16, "place_id": "hJ5sx5ZUU7OdGVc", "tags": null, "lat": 52.408833, "lon": 16.929333, "data": "2012-06-24 15:53:49" }, "geometry": { "type": "Point", "coordinates": [ 16.929332999997776, 52.408832999992377 ] } },
{ "type": "Feature", "properties": { "id": 9833, "photo_id": "7433353900", "owner": "20073461@N02", "title": "strefa kibica :)", "accuracy": 16, "place_id": "hJ5sx5ZUU7OdGVc", "tags": null, "lat": 52.408167, "lon": 16.927833, "data": "2012-06-24 15:30:37" }, "geometry": { "type": "Point", "coordinates": [ 16.927832999997769, 52.408166999992339 ] } },
{ "type": "Feature", "properties": { "id": 9834, "photo_id": "7433342700", "owner": "20073461@N02", "title": null, "accuracy": 16, "place_id": "hJ5sx5ZUU7OdGVc", "tags": null, "lat": 52.4085, "lon": 16.924167, "data": "2012-06-24 15:29:51" }, "geometry": { "type": "Point", "coordinates": [ 16.924166999997752, 52.408499999992259 ] } },
{ "type": "Feature", "properties": { "id": 9835, "photo_id": "7433363010", "owner": "20073461@N02", "title": null, "accuracy": 16, "place_id": "hJ5sx5ZUU7OdGVc", "tags": null, "lat": 52.408667, "lon": 16.929333, "data": "2012-06-24 15:55:25" }, "geometry": { "type": "Point", "coordinates": [ 16.929332999997776, 52.408666999992377 ] } },
{ "type": "Feature", "properties": { "id": 9836, "photo_id": "7432653570", "owner": "46196796@N07", "title": "Ja tu jeszcze wrócę \/ I'll be back.", "accuracy": 11, "place_id": "NAcWl6hUU74GcNA", "tags": "street streetphotography poland poznan nikond90 euro2012 lydiakhmer", "lat": 52.410377, "lon": 16.935081, "data": "2012-06-08 19:53:34" }, "geometry": { "type": "Point", "coordinates": [ 16.935080999997808, 52.410376999992508 ] } },
{ "type": "Feature", "properties": { "id": 9851, "photo_id": "7431924358", "owner": "97515705@N00", "title": "Stary Rynek", "accuracy": 15, "place_id": "hJ5sx5ZUU7OdGVc", "tags": "euro poland polska polen 2012 poznan posen euro2012", "lat": 52.408054, "lon": 16.934266, "data": "2012-06-01 00:00:00" }, "geometry": { "type": "Point", "coordinates": [ 16.934265999997802, 52.408053999992482 ] } },
{ "type": "Feature", "properties": { "id": 9852, "photo_id": "7431920640", "owner": "97515705@N00", "title": "EURO 2012 WC", "accuracy": 15, "place_id": "NAcWl6hUU74GcNA", "tags": "public euro toilet wc uefa 2012", "lat": 52.408381, "lon": 16.939029, "data": "2012-06-01 00:00:00" }, "geometry": { "type": "Point", "coordinates": [ 16.939028999997827, 52.408380999992588 ] } },
{ "type": "Feature", "properties": { "id": 9853, "photo_id": "7431922820", "owner": "97515705@N00", "title": "Poznan Garbary", "accuracy": 15, "place_id": "NAcWl6hUU74GcNA", "tags": "poland polska polen poznan posen garbary", "lat": 52.405966, "lon": 16.937549, "data": "2012-06-01 00:00:00" }, "geometry": { "type": "Point", "coordinates": [ 16.937548999997816, 52.405965999992546 ] } },
{ "type": "Feature", "properties": { "id": 9854, "photo_id": "7431925648", "owner": "97515705@N00", "title": "Poznan: Ul. Wszystkich sw. @ Garbary", "accuracy": 15, "place_id": "NAcWl6hUU74GcNA", "tags": "poland polska polen poznan posen garbary", "lat": 52.405534, "lon": 16.937699, "data": "2012-06-01 00:00:00" }, "geometry": { "type": "Point", "coordinates": [ 16.937698999997814, 52.405533999992556 ] } },
{ "type": "Feature", "properties": { "id": 9855, "photo_id": "7431622242", "owner": "20073461@N02", "title": "zachód, którego nie było :)", "accuracy": 16, "place_id": "okmPR6dQULzGNrEYUA", "tags": null, "lat": 52.377167, "lon": 16.741167, "data": "2012-06-24 05:12:47" }, "geometry": { "type": "Point", "coordinates": [ 16.741166999996711, 52.377166999987168 ] } },
{ "type": "Feature", "properties": { "id": 9857, "photo_id": "7430587126", "owner": "69553569@N04", "title": "UEFA EURO   Italy – UEFA.com..", "accuracy": 11, "place_id": "NAcWl6hUU74GcNA", "tags": null, "lat": 52.409, "lon": 16.938199, "data": "2012-06-24 01:00:49" }, "geometry": { "type": "Point", "coordinates": [ 16.938198999997823, 52.408999999992567 ] } },
{ "type": "Feature", "properties": { "id": 9858, "photo_id": "7428756974", "owner": "79691978@N02", "title": "ET22-1117 Poznan Glowny", "accuracy": 13, "place_id": "NAcWl6hUU74GcNA", "tags": "poland rail railway poznan pkp kolej glowny et22", "lat": 52.402157, "lon": 16.911735, "data": "2012-04-28 16:10:48" }, "geometry": { "type": "Point", "coordinates": [ 16.911734999997687, 52.402156999991981 ] } },
{ "type": "Feature", "properties": { "id": 9859, "photo_id": "7428752976", "owner": "79691978@N02", "title": "ET22-051 Poznan Glowny", "accuracy": 13, "place_id": "NAcWl6hUU74GcNA", "tags": "poland rail railway locomotive poznan pkp glowny et22", "lat": 52.40234, "lon": 16.911993, "data": "2012-04-28 16:46:32" }, "geometry": { "type": "Point", "coordinates": [ 16.911992999997686, 52.40233999999198 ] } },
{ "type": "Feature", "properties": { "id": 9860, "photo_id": "7423461050", "owner": "65172383@N06", "title": "Noc Kupały", "accuracy": 13, "place_id": "NAcWl6hUU74GcNA", "tags": "sky colors night poland solstice lanterns lampion noc poznan stjohnsnight nockupały", "lat": 52.402733, "lon": 16.944565, "data": "2012-06-21 22:57:11" }, "geometry": { "type": "Point", "coordinates": [ 16.944564999997851, 52.402732999992701 ] } },
{ "type": "Feature", "properties": { "id": 9861, "photo_id": "7422010058", "owner": "62981214@N06", "title": "814226", "accuracy": 14, "place_id": "D17UdZRUU77utio", "tags": "lomo lca xpro lomography poland tungsten analogue 8142 iso64 qss3233", "lat": 52.283689, "lon": 16.83393, "data": "2012-06-21 19:07:38" }, "geometry": { "type": "Point", "coordinates": [ 16.833929999997224, 52.283688999990019 ] } },
{ "type": "Feature", "properties": { "id": 9862, "photo_id": "7422000838", "owner": "62981214@N06", "title": "814209", "accuracy": 14, "place_id": "D17UdZRUU77utio", "tags": "lomo lca xpro lomography poland tungsten analogue multiexposure 8142 iso64 qss3233", "lat": 52.283794, "lon": 16.834273, "data": "2012-06-21 19:01:45" }, "geometry": { "type": "Point", "coordinates": [ 16.834272999997225, 52.283793999990017 ] } },
{ "type": "Feature", "properties": { "id": 9863, "photo_id": "7421997214", "owner": "62981214@N06", "title": "814204", "accuracy": 14, "place_id": "D17UdZRUU77utio", "tags": "lomo lca xpro lomography poland colorsplashflash tungsten analogue multiexposure 8142 iso64 qss3233", "lat": 52.283702, "lon": 16.834359, "data": "2012-06-21 19:01:30" }, "geometry": { "type": "Point", "coordinates": [ 16.834358999997225, 52.283701999990022 ] } },
{ "type": "Feature", "properties": { "id": 9864, "photo_id": "7422011648", "owner": "62981214@N06", "title": "814227", "accuracy": 14, "place_id": "D17UdZRUU77utio", "tags": "lomo lca xpro lomography poland tungsten analogue 8142 iso64 qss3233", "lat": 52.283675, "lon": 16.833887, "data": "2012-06-21 19:07:45" }, "geometry": { "type": "Point", "coordinates": [ 16.833886999997222, 52.283674999990005 ] } },
{ "type": "Feature", "properties": { "id": 9865, "photo_id": "7420183420", "owner": "30019051@N08", "title": "UEFA EURO 2012: Croatian Fans in Poznan", "accuracy": 16, "place_id": "hJ5sx5ZUU7OdGVc", "tags": "football euro soccer croatia tournament match fans uefa 2012 croatian poznań poznan irelandcroatia", "lat": 52.4079, "lon": 16.930532, "data": "2012-06-10 19:40:42" }, "geometry": { "type": "Point", "coordinates": [ 16.930531999997783, 52.407899999992402 ] } },
{ "type": "Feature", "properties": { "id": 9866, "photo_id": "7420164256", "owner": "30019051@N08", "title": "UEFA EURO 2012: Irish Fans in Poznan", "accuracy": 16, "place_id": "hJ5sx5ZUU7OdGVc", "tags": "ireland irish football euro soccer match fans uefa poznań poznan irelandcroatia", "lat": 52.407485, "lon": 16.92888, "data": "2012-06-10 19:06:38" }, "geometry": { "type": "Point", "coordinates": [ 16.928879999997772, 52.407484999992356 ] } },
{ "type": "Feature", "properties": { "id": 9867, "photo_id": "7419289322", "owner": "64776147@N07", "title": "98DuPont", "accuracy": 16, "place_id": "FKX3vbJUULr1s.A", "tags": "jeff rainbow die du cast gordon nascar pont 1998 nascardiecastjeffgordondupontrainbow1998racing", "lat": 52.4585, "lon": 16.899833, "data": "2012-01-30 12:32:41" }, "geometry": { "type": "Point", "coordinates": [ 16.899832999997649, 52.458499999991702 ] } },
{ "type": "Feature", "properties": { "id": 9868, "photo_id": "7415662622", "owner": "14874677@N02", "title": "183", "accuracy": 16, "place_id": "hJ5sx5ZUU7OdGVc", "tags": null, "lat": 52.405606, "lon": 16.934657, "data": "2012-06-21 20:12:43" }, "geometry": { "type": "Point", "coordinates": [ 16.934656999997802, 52.40560599999251 ] } },
{ "type": "Feature", "properties": { "id": 9869, "photo_id": "7415604246", "owner": "97515705@N00", "title": "EURO 2012 \/ Städtisches Stadion Posen \/ Italien - Irland \/ Pressetribüne", "accuracy": 14, "place_id": "NAcWl6hUU74GcNA", "tags": null, "lat": 52.396867, "lon": 16.85852, "data": "2012-06-18 22:52:09" }, "geometry": { "type": "Point", "coordinates": [ 16.858519999997405, 52.396866999990671 ] } },
{ "type": "Feature", "properties": { "id": 9870, "photo_id": "7415615784", "owner": "97515705@N00", "title": "Restauracja Chinska - Poznan", "accuracy": 16, "place_id": "hJ5sx5ZUU7OdGVc", "tags": "restaurant poland polska polen shopfront poznan posen restauracja lody hotwok lodygofry", "lat": 52.409353, "lon": 16.933794, "data": "2012-06-19 11:35:28" }, "geometry": { "type": "Point", "coordinates": [ 16.933793999997796, 52.409352999992478 ] } },
{ "type": "Feature", "properties": { "id": 9871, "photo_id": "7415617918", "owner": "97515705@N00", "title": "Polnische A 2 Richtung Poznan \/ Posen", "accuracy": 11, "place_id": "JBKsIPpUUroyIzA", "tags": "poland polska autobahn polen a2 autostrada poznan posen komorniki autostradawielkopolska entfernungstafel", "lat": 52.350021, "lon": 16.803245, "data": "2012-06-18 16:53:03" }, "geometry": { "type": "Point", "coordinates": [ 16.803244999997077, 52.350020999989134 ] } },
{ "type": "Feature", "properties": { "id": 9916, "photo_id": "7410570954", "owner": "43108918@N04", "title": "Irish fan before Ireland-Italy match in Poznań, UEFA EURO 2012", "accuracy": 15, "place_id": "NAcWl6hUU74GcNA", "tags": "ireland irish fan football funny euro poland polska ukraine uefa 2012", "lat": 52.396952, "lon": 16.86028, "data": "2012-06-18 19:43:02" }, "geometry": { "type": "Point", "coordinates": [ 16.860279999997417, 52.396951999990726 ] } },
{ "type": "Feature", "properties": { "id": 9917, "photo_id": "7410570676", "owner": "43108918@N04", "title": "Italian fan before Ireland-Italy match in Poznań, UEFA EURO 2012", "accuracy": 15, "place_id": "NAcWl6hUU74GcNA", "tags": "fan football italian euro poland polska ukraine uefa 2012", "lat": 52.396854, "lon": 16.860237, "data": "2012-06-18 19:45:51" }, "geometry": { "type": "Point", "coordinates": [ 16.860236999997419, 52.396853999990718 ] } },
{ "type": "Feature", "properties": { "id": 9918, "photo_id": "7410581742", "owner": "43108918@N04", "title": "Funny Irish football fan, UEFA EURO 2012", "accuracy": 15, "place_id": "NAcWl6hUU74GcNA", "tags": "ireland irish fan football funny euro poland polska ukraine uefa 2012", "lat": 52.397005, "lon": 16.860108, "data": "2012-06-18 19:42:28" }, "geometry": { "type": "Point", "coordinates": [ 16.860107999997417, 52.39700499999072 ] } },
{ "type": "Feature", "properties": { "id": 9919, "photo_id": "7410561568", "owner": "43108918@N04", "title": "Irish football fans with Polish girl, UEFA EURO 2012, Poznań", "accuracy": 15, "place_id": "NAcWl6hUU74GcNA", "tags": "ireland irish girl football euro poland polska polish ukraine fans uefa 2012", "lat": 52.397129, "lon": 16.861567, "data": "2012-06-18 19:03:27" }, "geometry": { "type": "Point", "coordinates": [ 16.861566999997425, 52.397128999990748 ] } },
{ "type": "Feature", "properties": { "id": 9920, "photo_id": "7410483914", "owner": "40004356@N02", "title": "romantic fan", "accuracy": 15, "place_id": "hJ5sx5ZUU7OdGVc", "tags": "ireland irish game green fan poland poznan euro2012", "lat": 52.408453, "lon": 16.933987, "data": "2012-06-18 16:04:19" }, "geometry": { "type": "Point", "coordinates": [ 16.933986999997796, 52.408452999992484 ] } },
{ "type": "Feature", "properties": { "id": 9927, "photo_id": "7410146384", "owner": "97515705@N00", "title": "Bischof-Jordan-Brücke Poznan", "accuracy": 16, "place_id": "NAcWl6hUU74GcNA", "tags": "bridge poland polska jordan polen pont brücke poznan posen", "lat": 52.411549, "lon": 16.950863, "data": "2012-06-19 13:04:02" }, "geometry": { "type": "Point", "coordinates": [ 16.950862999997881, 52.411548999992831 ] } },
{ "type": "Feature", "properties": { "id": 9928, "photo_id": "7410148038", "owner": "97515705@N00", "title": "Poznan 2012", "accuracy": 16, "place_id": "NAcWl6hUU74GcNA", "tags": "poland polska polen poznan posen dominsel", "lat": 52.410649, "lon": 16.945821, "data": "2012-06-19 11:57:09" }, "geometry": { "type": "Point", "coordinates": [ 16.945820999997853, 52.410648999992731 ] } },
{ "type": "Feature", "properties": { "id": 9929, "photo_id": "7410143914", "owner": "97515705@N00", "title": "Malaien in Poznan", "accuracy": 16, "place_id": "hJ5sx5ZUU7OdGVc", "tags": "altstadt poznan posen malaien", "lat": 52.408064, "lon": 16.935446, "data": "2012-06-19 13:35:09" }, "geometry": { "type": "Point", "coordinates": [ 16.935445999997803, 52.408063999992528 ] } },
{ "type": "Feature", "properties": { "id": 9930, "photo_id": "7410150010", "owner": "97515705@N00", "title": "Stary Rynek Poznan", "accuracy": 16, "place_id": "hJ5sx5ZUU7OdGVc", "tags": "poland polska polen poznan posen altermarkt starerynek", "lat": 52.40808, "lon": 16.934362, "data": "2012-06-19 11:03:59" }, "geometry": { "type": "Point", "coordinates": [ 16.934361999997797, 52.408079999992488 ] } },
{ "type": "Feature", "properties": { "id": 9932, "photo_id": "7408060196", "owner": "51931798@N00", "title": null, "accuracy": 16, "place_id": "hJ5sx5ZUU7OdGVc", "tags": "square squareformat amaro iphoneography instagramapp uploaded:by=instagram", "lat": 52.426181, "lon": 16.931514, "data": "2012-06-20 16:32:15" }, "geometry": { "type": "Point", "coordinates": [ 16.931513999997794, 52.426180999992425 ] } },
{ "type": "Feature", "properties": { "id": 9934, "photo_id": "7403539442", "owner": "97515705@N00", "title": "EURO 2012 - Municipal Stadium Poznan - Italy vs Ireland", "accuracy": 14, "place_id": "NAcWl6hUU74GcNA", "tags": "ireland italy euro poland polska polen 2012 poznan posen", "lat": 52.39798, "lon": 16.860194, "data": "2012-06-18 20:48:17" }, "geometry": { "type": "Point", "coordinates": [ 16.860193999997417, 52.397979999990724 ] } },
{ "type": "Feature", "properties": { "id": 9935, "photo_id": "7403537498", "owner": "97515705@N00", "title": "Stadion Posen nach dem Spiel Italien - Irland \/ EURO 2012", "accuracy": 14, "place_id": "NAcWl6hUU74GcNA", "tags": "blue stadium euro bleu lightning blau stadion blitz 2012 poznan posen", "lat": 52.396658, "lon": 16.861696, "data": "2012-06-18 23:10:22" }, "geometry": { "type": "Point", "coordinates": [ 16.861695999997423, 52.396657999990751 ] } },
{ "type": "Feature", "properties": { "id": 9936, "photo_id": "7403568892", "owner": "97515705@N00", "title": "Irische Fans - Posen 2012", "accuracy": 16, "place_id": "hJ5sx5ZUU7OdGVc", "tags": "irish euro poland polska polen em uefa 2012 poznan posen altmarkt boysingreen starerynek", "lat": 52.408571, "lon": 16.933364, "data": "2012-06-18 18:37:24" }, "geometry": { "type": "Point", "coordinates": [ 16.933363999997795, 52.408570999992463 ] } },
{ "type": "Feature", "properties": { "id": 9937, "photo_id": "7403552944", "owner": "97515705@N00", "title": "Italien - Irland 2:0", "accuracy": 14, "place_id": "NAcWl6hUU74GcNA", "tags": "ireland irland em uefa 2012 poznan posen", "lat": 52.397221, "lon": 16.859335, "data": "2012-06-18 22:23:47" }, "geometry": { "type": "Point", "coordinates": [ 16.859334999997412, 52.397220999990701 ] } },
{ "type": "Feature", "properties": { "id": 9938, "photo_id": "7397149106", "owner": "52894721@N00", "title": "Paddy's day in Poznan", "accuracy": 15, "place_id": "hJ5sx5ZUU7OdGVc", "tags": null, "lat": 52.407858, "lon": 16.932892, "data": "2012-06-18 16:41:31" }, "geometry": { "type": "Point", "coordinates": [ 16.932891999997793, 52.407857999992459 ] } },
{ "type": "Feature", "properties": { "id": 9939, "photo_id": "7397160998", "owner": "52894721@N00", "title": "Irish Sea in Poznan", "accuracy": 15, "place_id": "hJ5sx5ZUU7OdGVc", "tags": null, "lat": 52.407825, "lon": 16.932849, "data": "2012-06-18 15:32:29" }, "geometry": { "type": "Point", "coordinates": [ 16.932848999997795, 52.407824999992449 ] } },
{ "type": "Feature", "properties": { "id": 9940, "photo_id": "7397143454", "owner": "52894721@N00", "title": "Euro 2012 Irish in Poznan", "accuracy": 15, "place_id": "hJ5sx5ZUU7OdGVc", "tags": null, "lat": 52.407753, "lon": 16.932849, "data": "2012-06-18 13:38:55" }, "geometry": { "type": "Point", "coordinates": [ 16.932848999997795, 52.407752999992447 ] } },
{ "type": "Feature", "properties": { "id": 9941, "photo_id": "7397152176", "owner": "52894721@N00", "title": "Euro 2012 Irish in Poznan", "accuracy": 15, "place_id": "hJ5sx5ZUU7OdGVc", "tags": null, "lat": 52.407838, "lon": 16.932892, "data": "2012-06-18 16:41:19" }, "geometry": { "type": "Point", "coordinates": [ 16.932891999997793, 52.407837999992459 ] } },
{ "type": "Feature", "properties": { "id": 9942, "photo_id": "7397141160", "owner": "52894721@N00", "title": "Euro 2012 Irish in Poznan", "accuracy": 15, "place_id": "hJ5sx5ZUU7OdGVc", "tags": "ireland poznan euro2012", "lat": 52.407759, "lon": 16.932828, "data": "2012-06-18 13:48:46" }, "geometry": { "type": "Point", "coordinates": [ 16.932827999997794, 52.407758999992446 ] } },
{ "type": "Feature", "properties": { "id": 9943, "photo_id": "7397156382", "owner": "52894721@N00", "title": "Irish Sea in Poznan", "accuracy": 15, "place_id": "hJ5sx5ZUU7OdGVc", "tags": null, "lat": 52.407884, "lon": 16.932892, "data": "2012-06-18 16:38:23" }, "geometry": { "type": "Point", "coordinates": [ 16.932891999997793, 52.407883999992457 ] } },
{ "type": "Feature", "properties": { "id": 9944, "photo_id": "7397146132", "owner": "52894721@N00", "title": "Angela Merkel thinks...", "accuracy": 15, "place_id": "hJ5sx5ZUU7OdGVc", "tags": null, "lat": 52.407988, "lon": 16.933364, "data": "2012-06-18 13:36:59" }, "geometry": { "type": "Point", "coordinates": [ 16.933363999997795, 52.407987999992464 ] } },
{ "type": "Feature", "properties": { "id": 9946, "photo_id": "7395239394", "owner": "62386862@N06", "title": "You'll never beat the Irish", "accuracy": 11, "place_id": "NAcWl6hUU74GcNA", "tags": "irish euro poland 2012 euro2012", "lat": 52.402628, "lon": 16.945209, "data": "2012-06-18 14:55:18" }, "geometry": { "type": "Point", "coordinates": [ 16.945208999997853, 52.402627999992717 ] } },
{ "type": "Feature", "properties": { "id": 9947, "photo_id": "7395101330", "owner": "62386862@N06", "title": "Ireland in Poland", "accuracy": 11, "place_id": "NAcWl6hUU74GcNA", "tags": "irish euro poland 2012 euro2012", "lat": 52.406712, "lon": 16.937313, "data": "2012-06-18 14:55:29" }, "geometry": { "type": "Point", "coordinates": [ 16.937312999997815, 52.406711999992545 ] } },
{ "type": "Feature", "properties": { "id": 9948, "photo_id": "7395102258", "owner": "62386862@N06", "title": "Stand up for the boys in green!", "accuracy": 11, "place_id": "NAcWl6hUU74GcNA", "tags": "irish euro poland 2012 euro2012", "lat": 52.407026, "lon": 16.92255, "data": "2012-06-18 14:55:46" }, "geometry": { "type": "Point", "coordinates": [ 16.922549999997742, 52.407025999992236 ] } },
{ "type": "Feature", "properties": { "id": 9949, "photo_id": "7395099588", "owner": "62386862@N06", "title": "Irish fans in Poznan", "accuracy": 11, "place_id": "NAcWl6hUU74GcNA", "tags": "irish euro poland 2012 euro2012", "lat": 52.409644, "lon": 16.928386, "data": "2012-06-18 14:54:53" }, "geometry": { "type": "Point", "coordinates": [ 16.928385999997772, 52.409643999992362 ] } },
{ "type": "Feature", "properties": { "id": 9952, "photo_id": "7394076742", "owner": "75256323@N06", "title": "Entrance to the Hole", "accuracy": 11, "place_id": "Z9f_1SFUUr9PkbA", "tags": null, "lat": 52.34629, "lon": 16.87898, "data": "2012-06-17 14:19:35" }, "geometry": { "type": "Point", "coordinates": [ 16.878979999997497, 52.3462899999912 ] } },
{ "type": "Feature", "properties": { "id": 9958, "photo_id": "7392580688", "owner": "64311670@N08", "title": "#ludziewpodrozy", "accuracy": 16, "place_id": "rTA8cGpQULwssAhNZQ", "tags": "noflash hipstamatic buckhorsth1lens blankofreedom13film", "lat": 52.427714, "lon": 16.899392, "data": "2012-06-18 09:42:33" }, "geometry": { "type": "Point", "coordinates": [ 16.899391999997633, 52.427713999991695 ] } },
{ "type": "Feature", "properties": { "id": 9961, "photo_id": "7387377774", "owner": "26046992@N06", "title": "time...", "accuracy": 15, "place_id": "hJ5sx5ZUU7OdGVc", "tags": "old silver gold nikon market watch poland trade d90", "lat": 52.407485, "lon": 16.941604, "data": "2012-06-16 12:57:49" }, "geometry": { "type": "Point", "coordinates": [ 16.941603999997838, 52.407484999992633 ] } },
{ "type": "Feature", "properties": { "id": 9963, "photo_id": "7386072904", "owner": "79691978@N02", "title": "Tkt48-143 & SM42-758 Poznan Glowny", "accuracy": 14, "place_id": "NAcWl6hUU74GcNA", "tags": "poland rail railway locomotive poznan pkp tkt48", "lat": 52.401646, "lon": 16.912465, "data": "2012-06-07 17:40:14" }, "geometry": { "type": "Point", "coordinates": [ 16.912464999997692, 52.401645999991992 ] } },
{ "type": "Feature", "properties": { "id": 9964, "photo_id": "7386074408", "owner": "79691978@N02", "title": "Tkt48-143 Poznan Glowny", "accuracy": 14, "place_id": "NAcWl6hUU74GcNA", "tags": "poland rail railway locomotive poznan pkp tkt48", "lat": 52.401921, "lon": 16.912508, "data": "2012-06-07 17:43:11" }, "geometry": { "type": "Point", "coordinates": [ 16.912507999997693, 52.401920999991994 ] } },
{ "type": "Feature", "properties": { "id": 9965, "photo_id": "7385733398", "owner": "64311670@N08", "title": "HipstaPrint", "accuracy": 16, "place_id": "ADQjoDBVW73pk5Q", "tags": "noflash hipstamatic americanalens us1776film", "lat": 52.418891, "lon": 16.874225, "data": "2012-06-17 14:00:41" }, "geometry": { "type": "Point", "coordinates": [ 16.874224999997498, 52.418890999991078 ] } },
{ "type": "Feature", "properties": { "id": 4423, "photo_id": "8655306772", "owner": "54615916@N03", "title": "DSCF2595", "accuracy": 16, "place_id": "NAcWl6hUU74GcNA", "tags": "trees reflections spring poland polska poznań dębina", "lat": 52.366546, "lon": 16.914932, "data": "2013-04-14 14:25:04" }, "geometry": { "type": "Point", "coordinates": [ 16.914931999997695, 52.366545999992056 ] } },
{ "type": "Feature", "properties": { "id": 4415, "photo_id": "8656670400", "owner": "54615916@N03", "title": "DSCF2576", "accuracy": 16, "place_id": "NAcWl6hUU74GcNA", "tags": null, "lat": 52.36804, "lon": 16.916134, "data": "2013-04-14 14:19:31" }, "geometry": { "type": "Point", "coordinates": [ 16.916133999997697, 52.368039999992092 ] } },
{ "type": "Feature", "properties": { "id": 4416, "photo_id": "8656273302", "owner": "59415816@N07", "title": "Poznań Area, Dabrowa, the gravel pit.", "accuracy": 14, "place_id": "kzrqYUVVW7pjo5I", "tags": null, "lat": 52.406686, "lon": 16.742812, "data": "2013-04-15 14:46:35" }, "geometry": { "type": "Point", "coordinates": [ 16.742811999996736, 52.406685999987232 ] } },
{ "type": "Feature", "properties": { "id": 4417, "photo_id": "8655165121", "owner": "59415816@N07", "title": "Poznań Area, Dabrowa.", "accuracy": 14, "place_id": "kzrqYUVVW7pjo5I", "tags": null, "lat": 52.406272, "lon": 16.7427, "data": "2013-04-15 14:34:58" }, "geometry": { "type": "Point", "coordinates": [ 16.742699999996734, 52.406271999987219 ] } },
{ "type": "Feature", "properties": { "id": 4418, "photo_id": "8654917171", "owner": "84920124@N05", "title": "Tece at FURNICA 2013", "accuracy": 16, "place_id": "oHr._2tUUL7zvVY", "tags": "furniture poland fair exhibition międzynarodowetargipoznańskie uploaded:by=flickrmobile flickriosapp:filter=nofilter", "lat": 52.403265, "lon": 16.908356, "data": "2013-04-16 12:23:35" }, "geometry": { "type": "Point", "coordinates": [ 16.908355999997671, 52.403264999991912 ] } },
{ "type": "Feature", "properties": { "id": 4461, "photo_id": "8645331843", "owner": "76142448@N04", "title": "let's smile", "accuracy": 11, "place_id": "NAcWl6hUU74GcNA", "tags": "me smile photo lets tshirt", "lat": 52.408283, "lon": 16.935424, "data": "2011-01-04 19:38:39" }, "geometry": { "type": "Point", "coordinates": [ 16.935423999997809, 52.408282999992508 ] } },
{ "type": "Feature", "properties": { "id": 4424, "photo_id": "8655012894", "owner": "8346228@N08", "title": "Abondoned places.", "accuracy": 16, "place_id": "oHr._2tUUL7zvVY", "tags": "square squareformat rise iphoneography instagramapp uploaded:by=instagram foursquare:venue=4c65711de75ac928dea7f4da", "lat": 52.401144, "lon": 16.918799, "data": "2013-04-16 03:07:35" }, "geometry": { "type": "Point", "coordinates": [ 16.918798999997723, 52.401143999992144 ] } },
{ "type": "Feature", "properties": { "id": 4425, "photo_id": "8653909087", "owner": "8346228@N08", "title": "PoznańKraków fusion. #multiexposure #poznań #krakow", "accuracy": 16, "place_id": "oHr._2tUUL7zvVY", "tags": "valencia square squareformat iphoneography instagramapp uploaded:by=instagram", "lat": 52.400192, "lon": 16.900018, "data": "2013-04-16 03:06:15" }, "geometry": { "type": "Point", "coordinates": [ 16.900017999997626, 52.400191999991698 ] } },
{ "type": "Feature", "properties": { "id": 4426, "photo_id": "8653712775", "owner": "7744805@N06", "title": "Beats by Dre - ibeats", "accuracy": 15, "place_id": "NAcWl6hUU74GcNA", "tags": "monster by audio dre beats drdre ibeats", "lat": 52.407655, "lon": 16.87148, "data": "2013-04-14 21:41:07" }, "geometry": { "type": "Point", "coordinates": [ 16.871479999997479, 52.407654999991003 ] } },
{ "type": "Feature", "properties": { "id": 4427, "photo_id": "8652075515", "owner": "80903539@N08", "title": "ICHOT", "accuracy": 16, "place_id": "hJ5sx5ZUU7OdGVc", "tags": "building architecture river construction nikon under poland polska poznań posen", "lat": 52.411542, "lon": 16.95096, "data": "2013-03-01 14:08:03" }, "geometry": { "type": "Point", "coordinates": [ 16.950959999997881, 52.411541999992828 ] } },
{ "type": "Feature", "properties": { "id": 4428, "photo_id": "8652069159", "owner": "59415816@N07", "title": "Poznań Area, Dabrowa.", "accuracy": 16, "place_id": "kzrqYUVVW7pjo5I", "tags": null, "lat": 52.411592, "lon": 16.752845, "data": "2013-04-15 14:48:18" }, "geometry": { "type": "Point", "coordinates": [ 16.7528449999968, 52.411591999987557 ] } },
{ "type": "Feature", "properties": { "id": 4429, "photo_id": "8652068873", "owner": "59415816@N07", "title": "Poznań Area, Dabrowa. Development of new single-family homes.", "accuracy": 16, "place_id": "kzrqYUVVW7pjo5I", "tags": null, "lat": 52.409498, "lon": 16.7444, "data": "2013-04-15 14:33:58" }, "geometry": { "type": "Point", "coordinates": [ 16.744399999996745, 52.409497999987281 ] } },
{ "type": "Feature", "properties": { "id": 4430, "photo_id": "8652043841", "owner": "93985612@N07", "title": "5 370 009. Poznań Górczyn - Poznań Junikowo.", "accuracy": 16, "place_id": "NAcWl6hUU74GcNA", "tags": "taurus poznań bwe euro2012 pkpic 5370009", "lat": 52.378598, "lon": 16.845656, "data": "2013-04-15 20:34:12" }, "geometry": { "type": "Point", "coordinates": [ 16.84565599999733, 52.378597999990333 ] } },
{ "type": "Feature", "properties": { "id": 4433, "photo_id": "8651827131", "owner": "54615916@N03", "title": "last ice...", "accuracy": 16, "place_id": "NAcWl6hUU74GcNA", "tags": null, "lat": 52.366114, "lon": 16.915426, "data": "2013-04-15 19:18:19" }, "geometry": { "type": "Point", "coordinates": [ 16.915425999997694, 52.366113999992074 ] } },
{ "type": "Feature", "properties": { "id": 4434, "photo_id": "8652592116", "owner": "91186142@N03", "title": "Mercedes Axor MP1 \"Artex\" (PL)", "accuracy": 14, "place_id": "8vquyTlTUb70sykP", "tags": null, "lat": 52.352223, "lon": 16.921734, "data": "2013-04-13 11:58:38" }, "geometry": { "type": "Point", "coordinates": [ 16.921733999997723, 52.352222999992215 ] } },
{ "type": "Feature", "properties": { "id": 4435, "photo_id": "8652593482", "owner": "91186142@N03", "title": "Mercedes Actros MP3 L \"Romette\" (UA)", "accuracy": 14, "place_id": "8vquyTlTUb70sykP", "tags": null, "lat": 52.352328, "lon": 16.92182, "data": "2013-04-13 11:47:09" }, "geometry": { "type": "Point", "coordinates": [ 16.921819999997727, 52.352327999992205 ] } },
{ "type": "Feature", "properties": { "id": 4436, "photo_id": "8651492049", "owner": "91186142@N03", "title": "Mercedes Actros MP4 BigSpace \"G. Nawrocki\" (PL)", "accuracy": 14, "place_id": "8vquyTlTUb70sykP", "tags": null, "lat": 52.352275, "lon": 16.921992, "data": "2013-04-13 12:06:42" }, "geometry": { "type": "Point", "coordinates": [ 16.921991999997722, 52.352274999992211 ] } },
{ "type": "Feature", "properties": { "id": 4437, "photo_id": "8651496793", "owner": "91186142@N03", "title": "MAN TGX XXL \"Marisa\" (LT)", "accuracy": 14, "place_id": "8vquyTlTUb70sykP", "tags": null, "lat": 52.35217, "lon": 16.921734, "data": "2013-04-13 12:17:01" }, "geometry": { "type": "Point", "coordinates": [ 16.921733999997723, 52.352169999992199 ] } },
{ "type": "Feature", "properties": { "id": 4439, "photo_id": "8651495403", "owner": "91186142@N03", "title": "Mercedes Actros MP2 LH \"Frigo\" (PL)", "accuracy": 14, "place_id": "8vquyTlTUb70sykP", "tags": null, "lat": 52.352223, "lon": 16.92182, "data": "2013-04-13 11:35:32" }, "geometry": { "type": "Point", "coordinates": [ 16.921819999997727, 52.352222999992215 ] } },
{ "type": "Feature", "properties": { "id": 4440, "photo_id": "8652595426", "owner": "91186142@N03", "title": "Mercedes Actros MP4 BigSpace \"Parnu Auto\" (EST)", "accuracy": 14, "place_id": "8vquyTlTUb70sykP", "tags": null, "lat": 52.352223, "lon": 16.921906, "data": "2013-04-13 11:25:44" }, "geometry": { "type": "Point", "coordinates": [ 16.921905999997723, 52.352222999992222 ] } },
{ "type": "Feature", "properties": { "id": 4441, "photo_id": "8652209764", "owner": "54615916@N03", "title": "DSCF2565", "accuracy": 16, "place_id": "NAcWl6hUU74GcNA", "tags": null, "lat": 52.36821, "lon": 16.916284, "data": "2013-04-14 14:16:38" }, "geometry": { "type": "Point", "coordinates": [ 16.916283999997702, 52.368209999992082 ] } },
{ "type": "Feature", "properties": { "id": 4442, "photo_id": "8650760143", "owner": "75256323@N06", "title": "Cathedral church", "accuracy": 16, "place_id": "hJ5sx5ZUU7OdGVc", "tags": "city roof architecture cathedral interior organ oldtown hdr poznań poznan vaulting archcathedralbasilicaofstpeterandstpaul da122440edal", "lat": 52.411523, "lon": 16.948503, "data": "2013-04-14 14:51:11" }, "geometry": { "type": "Point", "coordinates": [ 16.948502999997867, 52.411522999992783 ] } },
{ "type": "Feature", "properties": { "id": 4443, "photo_id": "8650760215", "owner": "75256323@N06", "title": "Clouds over mr. Death", "accuracy": 16, "place_id": "hJ5sx5ZUU7OdGVc", "tags": "city architecture clouds oldtown poznań poznan da122440edal", "lat": 52.407746, "lon": 16.934148, "data": "2013-04-14 13:14:01" }, "geometry": { "type": "Point", "coordinates": [ 16.934147999997801, 52.407745999992486 ] } },
{ "type": "Feature", "properties": { "id": 4447, "photo_id": "8648946489", "owner": "40004356@N02", "title": "frozen pond", "accuracy": 14, "place_id": "rTA8cGpQULwssAhNZQ", "tags": "park blue sky cloud white snow ice nature water landscape pond flora view poland poznan", "lat": 52.423046, "lon": 16.900277, "data": "2013-04-07 15:08:18" }, "geometry": { "type": "Point", "coordinates": [ 16.900276999997637, 52.423045999991707 ] } },
{ "type": "Feature", "properties": { "id": 4450, "photo_id": "8649648258", "owner": "91186142@N03", "title": "Mercedes Actros MP4 StreamSpace \"Pawtrans\" (PL)", "accuracy": 14, "place_id": "8vquyTlTUb70sykP", "tags": null, "lat": 52.352328, "lon": 16.921906, "data": "2013-04-13 11:01:43" }, "geometry": { "type": "Point", "coordinates": [ 16.921905999997723, 52.352327999992212 ] } },
{ "type": "Feature", "properties": { "id": 4451, "photo_id": "8649648990", "owner": "91186142@N03", "title": "Mercedes Actros MP1 L (UA)", "accuracy": 14, "place_id": "8vquyTlTUb70sykP", "tags": null, "lat": 52.352328, "lon": 16.921992, "data": "2013-04-13 10:57:37" }, "geometry": { "type": "Point", "coordinates": [ 16.921991999997722, 52.35232799999222 ] } },
{ "type": "Feature", "properties": { "id": 4452, "photo_id": "8649650630", "owner": "91186142@N03", "title": "Volvo FH GL \"Winner\" (UA)", "accuracy": 14, "place_id": "8vquyTlTUb70sykP", "tags": null, "lat": 52.352275, "lon": 16.92182, "data": "2013-04-13 10:42:41" }, "geometry": { "type": "Point", "coordinates": [ 16.921819999997727, 52.352274999992211 ] } },
{ "type": "Feature", "properties": { "id": 4453, "photo_id": "8648548315", "owner": "91186142@N03", "title": "MAN TGA LX \"Sovtransavto\" (RUS)", "accuracy": 14, "place_id": "8vquyTlTUb70sykP", "tags": null, "lat": 52.35217, "lon": 16.92182, "data": "2013-04-13 11:03:36" }, "geometry": { "type": "Point", "coordinates": [ 16.921819999997727, 52.352169999992206 ] } },
{ "type": "Feature", "properties": { "id": 4454, "photo_id": "8649649808", "owner": "91186142@N03", "title": "Scania R500 V8 HL \"Angama\" (PL)", "accuracy": 14, "place_id": "8vquyTlTUb70sykP", "tags": null, "lat": 52.352275, "lon": 16.921906, "data": "2013-04-13 10:49:30" }, "geometry": { "type": "Point", "coordinates": [ 16.921905999997723, 52.352274999992211 ] } },
{ "type": "Feature", "properties": { "id": 4456, "photo_id": "8648547603", "owner": "91186142@N03", "title": "DAF XF105 SSC \"Frigo\" (PL)", "accuracy": 14, "place_id": "8vquyTlTUb70sykP", "tags": null, "lat": 52.352223, "lon": 16.921992, "data": "2013-04-13 10:31:56" }, "geometry": { "type": "Point", "coordinates": [ 16.921991999997722, 52.352222999992215 ] } },
{ "type": "Feature", "properties": { "id": 4457, "photo_id": "8648460835", "owner": "86896314@N02", "title": "Ibanez RG370DX... I have already sold it...", "accuracy": 14, "place_id": "NAcWl6hUU74GcNA", "tags": "nikon poland polska polen nikkor ibanez poznan posen nikkor1855 ibanezrg370dx nikond5100", "lat": 52.457473, "lon": 16.922807, "data": "2013-04-14 20:12:56" }, "geometry": { "type": "Point", "coordinates": [ 16.922806999997761, 52.457472999992227 ] } },
{ "type": "Feature", "properties": { "id": 4458, "photo_id": "8648024039", "owner": "54615916@N03", "title": "DSCF2719", "accuracy": 16, "place_id": "NAcWl6hUU74GcNA", "tags": null, "lat": 52.368511, "lon": 16.916928, "data": "2013-04-14 15:06:38" }, "geometry": { "type": "Point", "coordinates": [ 16.916927999997704, 52.36851099999209 ] } },
{ "type": "Feature", "properties": { "id": 4459, "photo_id": "8647923993", "owner": "54615916@N03", "title": "DSCF2722", "accuracy": 16, "place_id": "NAcWl6hUU74GcNA", "tags": null, "lat": 52.368341, "lon": 16.916906, "data": "2013-04-14 15:06:55" }, "geometry": { "type": "Point", "coordinates": [ 16.916905999997706, 52.368340999992093 ] } },
{ "type": "Feature", "properties": { "id": 4460, "photo_id": "8646922877", "owner": "94070831@N07", "title": "~2013", "accuracy": 16, "place_id": "NAcWl6hUU74GcNA", "tags": null, "lat": 52.40842, "lon": 16.934185, "data": "2013-04-14 09:46:31" }, "geometry": { "type": "Point", "coordinates": [ 16.934184999997797, 52.408419999992482 ] } },
{ "type": "Feature", "properties": { "id": 4463, "photo_id": "8646344634", "owner": "94443407@N06", "title": "DSC01678", "accuracy": 14, "place_id": "NAcWl6hUU74GcNA", "tags": null, "lat": 52.475304, "lon": 16.93787, "data": "2013-04-13 10:41:31" }, "geometry": { "type": "Point", "coordinates": [ 16.937869999997837, 52.475303999992569 ] } },
{ "type": "Feature", "properties": { "id": 4464, "photo_id": "8646341448", "owner": "94443407@N06", "title": "DSC01828", "accuracy": 14, "place_id": "NAcWl6hUU74GcNA", "tags": null, "lat": 52.475723, "lon": 16.93787, "data": "2013-04-13 11:11:41" }, "geometry": { "type": "Point", "coordinates": [ 16.93786999999784, 52.475722999992563 ] } },
{ "type": "Feature", "properties": { "id": 4465, "photo_id": "8646346316", "owner": "94443407@N06", "title": "DSC01475", "accuracy": 14, "place_id": "NAcWl6hUU74GcNA", "tags": null, "lat": 52.47567, "lon": 16.93787, "data": "2013-04-13 09:56:00" }, "geometry": { "type": "Point", "coordinates": [ 16.937869999997837, 52.475669999992569 ] } },
{ "type": "Feature", "properties": { "id": 4466, "photo_id": "8645246253", "owner": "94443407@N06", "title": "DSC01470", "accuracy": 14, "place_id": "NAcWl6hUU74GcNA", "tags": null, "lat": 52.475461, "lon": 16.937613, "data": "2013-04-13 09:49:06" }, "geometry": { "type": "Point", "coordinates": [ 16.937612999997839, 52.475460999992563 ] } },
{ "type": "Feature", "properties": { "id": 4467, "photo_id": "8645246595", "owner": "94443407@N06", "title": "DSC01465", "accuracy": 14, "place_id": "NAcWl6hUU74GcNA", "tags": null, "lat": 52.475513, "lon": 16.937956, "data": "2013-04-13 09:48:28" }, "geometry": { "type": "Point", "coordinates": [ 16.937955999997836, 52.47551299999256 ] } },
{ "type": "Feature", "properties": { "id": 4468, "photo_id": "8646342522", "owner": "94443407@N06", "title": "DSC01803", "accuracy": 14, "place_id": "NAcWl6hUU74GcNA", "tags": null, "lat": 52.475618, "lon": 16.937785, "data": "2013-04-13 11:09:08" }, "geometry": { "type": "Point", "coordinates": [ 16.937784999997842, 52.475617999992565 ] } },
{ "type": "Feature", "properties": { "id": 4470, "photo_id": "8645244899", "owner": "94443407@N06", "title": "DSC01601", "accuracy": 14, "place_id": "NAcWl6hUU74GcNA", "tags": null, "lat": 52.47567, "lon": 16.938214, "data": "2013-04-13 10:05:46" }, "geometry": { "type": "Point", "coordinates": [ 16.938213999997838, 52.475669999992576 ] } },
{ "type": "Feature", "properties": { "id": 4471, "photo_id": "8646340464", "owner": "94443407@N06", "title": "DSC01835", "accuracy": 14, "place_id": "NAcWl6hUU74GcNA", "tags": null, "lat": 52.475618, "lon": 16.937527, "data": "2013-04-13 11:12:21" }, "geometry": { "type": "Point", "coordinates": [ 16.937526999997839, 52.475617999992558 ] } },
{ "type": "Feature", "properties": { "id": 4472, "photo_id": "8646341950", "owner": "94443407@N06", "title": "DSC01821", "accuracy": 14, "place_id": "NAcWl6hUU74GcNA", "tags": null, "lat": 52.475409, "lon": 16.937613, "data": "2013-04-13 11:10:21" }, "geometry": { "type": "Point", "coordinates": [ 16.937612999997839, 52.47540899999256 ] } },
{ "type": "Feature", "properties": { "id": 4473, "photo_id": "8646343530", "owner": "94443407@N06", "title": "DSC01759", "accuracy": 14, "place_id": "NAcWl6hUU74GcNA", "tags": null, "lat": 52.475775, "lon": 16.938128, "data": "2013-04-13 10:49:58" }, "geometry": { "type": "Point", "coordinates": [ 16.938127999997839, 52.475774999992566 ] } },
{ "type": "Feature", "properties": { "id": 4474, "photo_id": "8645246897", "owner": "94443407@N06", "title": "DSC01442", "accuracy": 14, "place_id": "NAcWl6hUU74GcNA", "tags": null, "lat": 52.475357, "lon": 16.937441, "data": "2013-04-13 09:44:05" }, "geometry": { "type": "Point", "coordinates": [ 16.93744099999784, 52.475356999992556 ] } },
{ "type": "Feature", "properties": { "id": 4475, "photo_id": "8646344988", "owner": "94443407@N06", "title": "DSC01608", "accuracy": 14, "place_id": "Kf9yfz9UUr0oM0s", "tags": null, "lat": 52.476193, "lon": 16.937613, "data": "2013-04-13 10:08:30" }, "geometry": { "type": "Point", "coordinates": [ 16.937612999997839, 52.47619299999257 ] } },
{ "type": "Feature", "properties": { "id": 4476, "photo_id": "8645245901", "owner": "94443407@N06", "title": "DSC01581", "accuracy": 14, "place_id": "NAcWl6hUU74GcNA", "tags": null, "lat": 52.475827, "lon": 16.937785, "data": "2013-04-13 10:04:32" }, "geometry": { "type": "Point", "coordinates": [ 16.937784999997842, 52.475826999992556 ] } },
{ "type": "Feature", "properties": { "id": 4478, "photo_id": "8645240553", "owner": "94443407@N06", "title": "DSC01833", "accuracy": 14, "place_id": "NAcWl6hUU74GcNA", "tags": null, "lat": 52.475357, "lon": 16.938128, "data": "2013-04-13 11:12:01" }, "geometry": { "type": "Point", "coordinates": [ 16.938127999997835, 52.47535699999257 ] } },
{ "type": "Feature", "properties": { "id": 4479, "photo_id": "8646344306", "owner": "94443407@N06", "title": "DSC01704", "accuracy": 14, "place_id": "NAcWl6hUU74GcNA", "tags": null, "lat": 52.47567, "lon": 16.937785, "data": "2013-04-13 10:44:21" }, "geometry": { "type": "Point", "coordinates": [ 16.937784999997842, 52.475669999992554 ] } },
{ "type": "Feature", "properties": { "id": 4480, "photo_id": "8646345756", "owner": "94443407@N06", "title": "DSC01586", "accuracy": 14, "place_id": "NAcWl6hUU74GcNA", "tags": null, "lat": 52.475932, "lon": 16.937785, "data": "2013-04-13 10:05:19" }, "geometry": { "type": "Point", "coordinates": [ 16.937784999997842, 52.475931999992554 ] } },
{ "type": "Feature", "properties": { "id": 4481, "photo_id": "8646343786", "owner": "94443407@N06", "title": "DSC01747", "accuracy": 14, "place_id": "NAcWl6hUU74GcNA", "tags": null, "lat": 52.475252, "lon": 16.937699, "data": "2013-04-13 10:47:58" }, "geometry": { "type": "Point", "coordinates": [ 16.937698999997835, 52.475251999992544 ] } },
{ "type": "Feature", "properties": { "id": 4482, "photo_id": "8645808498", "owner": "54615916@N03", "title": "DSCF1590", "accuracy": 16, "place_id": "NAcWl6hUU74GcNA", "tags": null, "lat": 52.368236, "lon": 16.920232, "data": "2013-03-17 15:17:05" }, "geometry": { "type": "Point", "coordinates": [ 16.920231999997718, 52.368235999992173 ] } },
{ "type": "Feature", "properties": { "id": 4483, "photo_id": "8645488544", "owner": "54615916@N03", "title": "DSCF2473", "accuracy": 16, "place_id": "NAcWl6hUU74GcNA", "tags": null, "lat": 52.369415, "lon": 16.915683, "data": "2013-04-07 17:40:41" }, "geometry": { "type": "Point", "coordinates": [ 16.915682999997699, 52.369414999992067 ] } },
{ "type": "Feature", "properties": { "id": 4484, "photo_id": "8645292594", "owner": "75256323@N06", "title": "Ghost train chasing the sunset", "accuracy": 14, "place_id": "xgrUybNUU7KB8gw", "tags": "sunset train traction railway rails fa7718limited pentaxk5", "lat": 52.376489, "lon": 16.79964, "data": "2012-09-11 18:22:25" }, "geometry": { "type": "Point", "coordinates": [ 16.799639999997066, 52.376488999989036 ] } },
{ "type": "Feature", "properties": { "id": 4485, "photo_id": "8644116401", "owner": "92993594@N04", "title": "Wild Forest", "accuracy": 16, "place_id": "Z7sL88hUUr5EfsU", "tags": "wild green sunshine forest secret mysterious", "lat": 52.292942, "lon": 16.897144, "data": "2012-09-30 07:58:29" }, "geometry": { "type": "Point", "coordinates": [ 16.897143999997574, 52.292941999991641 ] } },
{ "type": "Feature", "properties": { "id": 4486, "photo_id": "8642922017", "owner": "54615916@N03", "title": "oaks and clouds...", "accuracy": 16, "place_id": "NAcWl6hUU74GcNA", "tags": null, "lat": 52.366651, "lon": 16.919481, "data": "2013-04-12 22:21:00" }, "geometry": { "type": "Point", "coordinates": [ 16.919480999997717, 52.366650999992167 ] } },
{ "type": "Feature", "properties": { "id": 4487, "photo_id": "8642779184", "owner": "93985612@N07", "title": "5 370 003. Poznań Junikowo.", "accuracy": 15, "place_id": "NAcWl6hUU74GcNA", "tags": "bwe euro2012 370003 5370003 poznańjunikowo", "lat": 52.377668, "lon": 16.8276, "data": "2013-04-12 12:05:14" }, "geometry": { "type": "Point", "coordinates": [ 16.827599999997226, 52.377667999989846 ] } },
{ "type": "Feature", "properties": { "id": 4488, "photo_id": "8642779420", "owner": "93985612@N07", "title": "5 370 009. Poznań Junikowo - Poznań Górczyn", "accuracy": 15, "place_id": "NAcWl6hUU74GcNA", "tags": "bwe 370009 euro2012 pkpic 5370009 poznańgórczyn poznańjunikowo", "lat": 52.37848, "lon": 16.843006, "data": "2013-04-12 12:05:27" }, "geometry": { "type": "Point", "coordinates": [ 16.84300599999731, 52.378479999990269 ] } },
{ "type": "Feature", "properties": { "id": 4489, "photo_id": "8642779346", "owner": "93985612@N07", "title": "5 370 007. Poznań Górczyn - Poznań Junikowo", "accuracy": 15, "place_id": "NAcWl6hUU74GcNA", "tags": "bwe pkpic 370007 5370007 poznańgórczyn poznańjunikowo", "lat": 52.378559, "lon": 16.845238, "data": "2013-04-12 12:05:23" }, "geometry": { "type": "Point", "coordinates": [ 16.845237999997323, 52.378558999990318 ] } },
{ "type": "Feature", "properties": { "id": 4490, "photo_id": "8642779298", "owner": "93985612@N07", "title": "5 370 006. Poznań Górczyn - Poznań Junikowo", "accuracy": 15, "place_id": "NAcWl6hUU74GcNA", "tags": "tags bwe pkpic 370007 5370007 poznańgórczyn poznańjunikowo", "lat": 52.378559, "lon": 16.846783, "data": "2013-04-12 12:05:20" }, "geometry": { "type": "Point", "coordinates": [ 16.84678299999733, 52.378558999990361 ] } },
{ "type": "Feature", "properties": { "id": 4491, "photo_id": "8642779258", "owner": "93985612@N07", "title": "5 370 004. Poznań Garbary", "accuracy": 15, "place_id": "NAcWl6hUU74GcNA", "tags": "poznań bwe garbary euro2012 pkpic 370004 5370004", "lat": 52.41645, "lon": 16.935017, "data": "2013-04-12 12:05:18" }, "geometry": { "type": "Point", "coordinates": [ 16.935016999997806, 52.416449999992501 ] } },
{ "type": "Feature", "properties": { "id": 4492, "photo_id": "8642779490", "owner": "93985612@N07", "title": "5 370 010. Poznań Górczyn", "accuracy": 15, "place_id": "NAcWl6hUU74GcNA", "tags": "taurus poznań bwe euro2012 pkpic poznańgórczyn 5370010 370010", "lat": 52.379895, "lon": 16.871244, "data": "2013-04-12 12:05:30" }, "geometry": { "type": "Point", "coordinates": [ 16.871243999997471, 52.379894999991002 ] } },
{ "type": "Feature", "properties": { "id": 4493, "photo_id": "8642779006", "owner": "93985612@N07", "title": "5 370 003. Poznań Garbary", "accuracy": 15, "place_id": "NAcWl6hUU74GcNA", "tags": "tags poznań bwe garbary euro2012 pkpic 370004 5370004", "lat": 52.416398, "lon": 16.935274, "data": "2013-04-12 12:05:05" }, "geometry": { "type": "Point", "coordinates": [ 16.935273999997811, 52.416397999992505 ] } },
{ "type": "Feature", "properties": { "id": 4495, "photo_id": "8641276335", "owner": "65172383@N06", "title": "Equisetum ramosissimum", "accuracy": 14, "place_id": "ADQjoDBVW73pk5Q", "tags": "macro green nature closeup horsetail equisetum skrzyp macrodreams", "lat": 52.419853, "lon": 16.882767, "data": "2012-09-19 15:39:38" }, "geometry": { "type": "Point", "coordinates": [ 16.882766999997546, 52.419852999991292 ] } },
{ "type": "Feature", "properties": { "id": 4496, "photo_id": "8638952909", "owner": "75147821@N02", "title": null, "accuracy": 11, "place_id": "NAcWl6hUU74GcNA", "tags": "35mm iso100 lomo opera actionsampler poznań 2013 lomographycolornegative100", "lat": 52.414147, "lon": 16.931991, "data": "2013-02-01 00:00:00" }, "geometry": { "type": "Point", "coordinates": [ 16.93199099999779, 52.41414699999244 ] } },
{ "type": "Feature", "properties": { "id": 4497, "photo_id": "8638717443", "owner": "75147821@N02", "title": null, "accuracy": 11, "place_id": "NAcWl6hUU74GcNA", "tags": "35mm iso100 lomo actionsampler 2013 lomographycolornegative100", "lat": 52.411215, "lon": 16.938858, "data": "2013-02-01 00:00:00" }, "geometry": { "type": "Point", "coordinates": [ 16.938857999997825, 52.41121499999258 ] } },
{ "type": "Feature", "properties": { "id": 4498, "photo_id": "8638754852", "owner": "75147821@N02", "title": null, "accuracy": 11, "place_id": "NAcWl6hUU74GcNA", "tags": "35mm iso100 lomo actionsampler slowmotion poznań 2013 lomographycolornegative100", "lat": 52.410377, "lon": 16.934738, "data": "2013-02-01 00:00:00" }, "geometry": { "type": "Point", "coordinates": [ 16.934737999997804, 52.410376999992486 ] } },
{ "type": "Feature", "properties": { "id": 4500, "photo_id": "8638706112", "owner": "75147821@N02", "title": null, "accuracy": 11, "place_id": "NAcWl6hUU74GcNA", "tags": "35mm iso100 lomo actionsampler 2013 lomographycolornegative100", "lat": 52.412472, "lon": 16.938858, "data": "2013-02-01 00:00:00" }, "geometry": { "type": "Point", "coordinates": [ 16.938857999997825, 52.412471999992576 ] } },
{ "type": "Feature", "properties": { "id": 4560, "photo_id": "8631975468", "owner": "8136581@N02", "title": null, "accuracy": 16, "place_id": "hJ5sx5ZUU7OdGVc", "tags": null, "lat": 52.406, "lon": 16.932833, "data": "2013-03-26 13:41:14" }, "geometry": { "type": "Point", "coordinates": [ 16.932832999997792, 52.405999999992453 ] } },
{ "type": "Feature", "properties": { "id": 4553, "photo_id": "8631968456", "owner": "8136581@N02", "title": null, "accuracy": 16, "place_id": "oHr._2tUUL7zvVY", "tags": null, "lat": 52.401666, "lon": 16.911666, "data": "2013-03-26 13:13:34" }, "geometry": { "type": "Point", "coordinates": [ 16.911665999997687, 52.401665999991977 ] } },
{ "type": "Feature", "properties": { "id": 4502, "photo_id": "8634301047", "owner": "71408778@N04", "title": "czyszczenie wykładziny", "accuracy": 16, "place_id": "NAcWl6hUU74GcNA", "tags": "czyszczeniewykładziny praniewykładzin czyszczeniedywanu praniedywanu", "lat": 52.37677, "lon": 16.864723, "data": "2010-05-27 15:31:34" }, "geometry": { "type": "Point", "coordinates": [ 16.864722999997436, 52.376769999990827 ] } },
{ "type": "Feature", "properties": { "id": 4504, "photo_id": "8632805184", "owner": "57045184@N05", "title": "!R0015883", "accuracy": 16, "place_id": "oHr._2tUUL7zvVY", "tags": "gr grdigital ricoh 21mm bleachbypass gw2 grd4 grdiv", "lat": 52.396003, "lon": 16.926831, "data": "2013-04-06 19:32:26" }, "geometry": { "type": "Point", "coordinates": [ 16.926830999997762, 52.396002999992319 ] } },
{ "type": "Feature", "properties": { "id": 4505, "photo_id": "8630890379", "owner": "8136581@N02", "title": null, "accuracy": 16, "place_id": "hJ5sx5ZUU7OdGVc", "tags": null, "lat": 52.407666, "lon": 16.934333, "data": "2013-03-26 15:03:05" }, "geometry": { "type": "Point", "coordinates": [ 16.9343329999978, 52.407665999992481 ] } },
{ "type": "Feature", "properties": { "id": 4506, "photo_id": "8632008214", "owner": "8136581@N02", "title": null, "accuracy": 16, "place_id": "hJ5sx5ZUU7OdGVc", "tags": null, "lat": 52.404, "lon": 16.918833, "data": "2013-03-26 15:27:29" }, "geometry": { "type": "Point", "coordinates": [ 16.918832999997722, 52.403999999992152 ] } },
{ "type": "Feature", "properties": { "id": 4527, "photo_id": "8630878423", "owner": "8136581@N02", "title": null, "accuracy": 16, "place_id": "hJ5sx5ZUU7OdGVc", "tags": null, "lat": 52.406333, "lon": 16.934166, "data": "2013-03-26 14:56:46" }, "geometry": { "type": "Point", "coordinates": [ 16.934165999997798, 52.406332999992472 ] } },
{ "type": "Feature", "properties": { "id": 4543, "photo_id": "8631990234", "owner": "8136581@N02", "title": null, "accuracy": 16, "place_id": "hJ5sx5ZUU7OdGVc", "tags": null, "lat": 52.407833, "lon": 16.934166, "data": "2013-03-26 15:00:38" }, "geometry": { "type": "Point", "coordinates": [ 16.934165999997798, 52.407832999992486 ] } },
{ "type": "Feature", "properties": { "id": 4563, "photo_id": "8630080263", "owner": "89422595@N08", "title": "28-365", "accuracy": 11, "place_id": "pcQFKwpVW7NSv.A", "tags": null, "lat": 52.48653, "lon": 16.76324, "data": "2013-04-06 19:09:43" }, "geometry": { "type": "Point", "coordinates": [ 16.763239999996898, 52.486529999987901 ] } },
{ "type": "Feature", "properties": { "id": 4564, "photo_id": "8628380197", "owner": "57045184@N05", "title": "!R0015886", "accuracy": 16, "place_id": "NAcWl6hUU74GcNA", "tags": "gr grdigital ricoh 21mm bleachbypass gw2 grd4 grdiv", "lat": 52.402052, "lon": 16.985131, "data": "2013-04-07 22:56:13" }, "geometry": { "type": "Point", "coordinates": [ 16.985130999998038, 52.402051999993525 ] } },
{ "type": "Feature", "properties": { "id": 4566, "photo_id": "8628028593", "owner": "40822096@N03", "title": "Beautiful nature", "accuracy": 16, "place_id": "BKABEM1TVrMaRwkCzg", "tags": null, "lat": 52.48638, "lon": 17.123227, "data": "2013-03-16 14:48:09" }, "geometry": { "type": "Point", "coordinates": [ 17.123226999998611, 52.486379999995762 ] } },
{ "type": "Feature", "properties": { "id": 4568, "photo_id": "8568447703", "owner": "32649004@N08", "title": "Vapor urbà", "accuracy": 16, "place_id": "NAcWl6hUU74GcNA", "tags": "train tren polska eisenbahn zug bahn treno trein 2012 poznań jezioro pociąg bösing polònia zuge bn2t wielkopolskie parowy wls501563 maltanskie", "lat": 52.403754, "lon": 16.971559, "data": "2012-07-29 11:30:02" }, "geometry": { "type": "Point", "coordinates": [ 16.971558999997978, 52.403753999993256 ] } },
{ "type": "Feature", "properties": { "id": 4569, "photo_id": "8628848254", "owner": "54615916@N03", "title": "DSCF2468", "accuracy": 16, "place_id": "NAcWl6hUU74GcNA", "tags": null, "lat": 52.369415, "lon": 16.915748, "data": "2013-04-07 17:39:51" }, "geometry": { "type": "Point", "coordinates": [ 16.915747999997699, 52.369414999992067 ] } },
{ "type": "Feature", "properties": { "id": 4570, "photo_id": "8628692738", "owner": "79469904@N03", "title": "Poznań Halfmarathon", "accuracy": 14, "place_id": "NAcWl6hUU74GcNA", "tags": null, "lat": 52.397391, "lon": 16.978855, "data": "2013-04-07 07:47:35" }, "geometry": { "type": "Point", "coordinates": [ 16.978854999998006, 52.397390999993398 ] } },
{ "type": "Feature", "properties": { "id": 4571, "photo_id": "8627286569", "owner": "46657502@N08", "title": "2013", "accuracy": 16, "place_id": "oHr._2tUUL7zvVY", "tags": "międzynarodowetargipoznańskie uploaded:by=flickrmobile flickriosapp:filter=nofilter", "lat": 52.40358, "lon": 16.907657, "data": "2013-04-07 13:30:01" }, "geometry": { "type": "Point", "coordinates": [ 16.907656999997666, 52.403579999991877 ] } },
{ "type": "Feature", "properties": { "id": 4618, "photo_id": "8625334669", "owner": "47974118@N03", "title": "poznan-4", "accuracy": 9, "place_id": "NAcWl6hUU74GcNA", "tags": "{agreguesuspalabrasclavedelimitadasporpuntoycoma}", "lat": 52.406607, "lon": 16.921691, "data": "2013-03-01 13:10:07" }, "geometry": { "type": "Point", "coordinates": [ 16.92169099999774, 52.406606999992214 ] } },
{ "type": "Feature", "properties": { "id": 4649, "photo_id": "8624684831", "owner": "29837427@N08", "title": null, "accuracy": 16, "place_id": "hJ5sx5ZUU7OdGVc", "tags": "uploaded:by=flickrmobile flickriosapp:filter=nofilter", "lat": 52.401166, "lon": 16.944333, "data": "2013-04-06 15:08:35" }, "geometry": { "type": "Point", "coordinates": [ 16.944332999997847, 52.401165999992699 ] } },
{ "type": "Feature", "properties": { "id": 4650, "photo_id": "8625125004", "owner": "91186142@N03", "title": "Scania R500 V8 TL \"Sebo\" (PL)", "accuracy": 14, "place_id": "lPGt2e9TVrNKn5YxHg", "tags": null, "lat": 52.34525, "lon": 17.006964, "data": "2013-04-02 12:09:37" }, "geometry": { "type": "Point", "coordinates": [ 17.006963999998121, 52.345249999993939 ] } },
{ "type": "Feature", "properties": { "id": 4651, "photo_id": "8624435728", "owner": "91186142@N03", "title": "DAF XF105 SC \"Sovtransavto\" (RUS)", "accuracy": 14, "place_id": "N66hxuBTVrN1heKtCQ", "tags": null, "lat": 52.329517, "lon": 17.09022, "data": "2013-04-02 13:32:48" }, "geometry": { "type": "Point", "coordinates": [ 17.090219999998457, 52.329516999995306 ] } },
{ "type": "Feature", "properties": { "id": 4652, "photo_id": "8623335103", "owner": "91186142@N03", "title": "Volvo FH08 GL XL \"Woźniecki\" (PL)", "accuracy": 14, "place_id": "lPGt2e9TVrNKn5YxHg", "tags": null, "lat": 52.345302, "lon": 17.006964, "data": "2013-04-02 12:27:38" }, "geometry": { "type": "Point", "coordinates": [ 17.006963999998121, 52.345301999993936 ] } },
{ "type": "Feature", "properties": { "id": 4653, "photo_id": "8623332801", "owner": "91186142@N03", "title": "Scania 4 TL \"Tonerud Transport\" (N)", "accuracy": 14, "place_id": "N66hxuBTVrN1heKtCQ", "tags": null, "lat": 52.329412, "lon": 17.090477, "data": "2013-04-02 13:31:28" }, "geometry": { "type": "Point", "coordinates": [ 17.090476999998462, 52.329411999995294 ] } },
{ "type": "Feature", "properties": { "id": 4654, "photo_id": "8623335769", "owner": "91186142@N03", "title": "DAF XF105 SSC \"Parlej\" (PL)", "accuracy": 14, "place_id": "lPGt2e9TVrNKn5YxHg", "tags": null, "lat": 52.345197, "lon": 17.006878, "data": "2013-04-02 12:37:01" }, "geometry": { "type": "Point", "coordinates": [ 17.006877999998121, 52.345196999993924 ] } },
{ "type": "Feature", "properties": { "id": 4655, "photo_id": "8623333809", "owner": "91186142@N03", "title": "MAZ-MA3 6430 (BY)", "accuracy": 14, "place_id": "lPGt2e9TVrNKn5YxHg", "tags": null, "lat": 52.345145, "lon": 17.00705, "data": "2013-04-02 12:54:57" }, "geometry": { "type": "Point", "coordinates": [ 17.00704999999812, 52.345144999993941 ] } },
{ "type": "Feature", "properties": { "id": 4656, "photo_id": "8624436546", "owner": "91186142@N03", "title": "Scania R500 V8 TL \"Emco\" (PL)", "accuracy": 14, "place_id": "lPGt2e9TVrNKn5YxHg", "tags": null, "lat": 52.345302, "lon": 17.006878, "data": "2013-04-02 12:49:14" }, "geometry": { "type": "Point", "coordinates": [ 17.006877999998121, 52.345301999993929 ] } },
{ "type": "Feature", "properties": { "id": 4658, "photo_id": "8624438606", "owner": "91186142@N03", "title": "MAN TGS LX \"Wemmers\" (CZ)", "accuracy": 14, "place_id": "lPGt2e9TVrNKn5YxHg", "tags": null, "lat": 52.345197, "lon": 17.007136, "data": "2013-04-02 12:21:50" }, "geometry": { "type": "Point", "coordinates": [ 17.00713599999812, 52.345196999993945 ] } },
{ "type": "Feature", "properties": { "id": 4659, "photo_id": "8624438882", "owner": "91186142@N03", "title": "MAN TGA XXL \"BVD Spedition\" (D)", "accuracy": 14, "place_id": "lPGt2e9TVrNKn5YxHg", "tags": null, "lat": 52.345197, "lon": 17.00705, "data": "2013-04-02 12:34:18" }, "geometry": { "type": "Point", "coordinates": [ 17.00704999999812, 52.345196999993938 ] } },
{ "type": "Feature", "properties": { "id": 4661, "photo_id": "8623334627", "owner": "91186142@N03", "title": "Scania R420 HL \"Agromat\" (UA)", "accuracy": 14, "place_id": "lPGt2e9TVrNKn5YxHg", "tags": null, "lat": 52.345092, "lon": 17.007136, "data": "2013-04-02 12:48:54" }, "geometry": { "type": "Point", "coordinates": [ 17.00713599999812, 52.34509199999394 ] } },
{ "type": "Feature", "properties": { "id": 4664, "photo_id": "8623334403", "owner": "91186142@N03", "title": "Scania R440 \"Dann Trans\" (PL)", "accuracy": 14, "place_id": "lPGt2e9TVrNKn5YxHg", "tags": null, "lat": 52.345302, "lon": 17.00705, "data": "2013-04-02 12:31:46" }, "geometry": { "type": "Point", "coordinates": [ 17.00704999999812, 52.345301999993943 ] } },
{ "type": "Feature", "properties": { "id": 4665, "photo_id": "8623283219", "owner": "54615916@N03", "title": "snow-flurry ...spring...", "accuracy": 16, "place_id": "NAcWl6hUU74GcNA", "tags": null, "lat": 52.366572, "lon": 16.918709, "data": "2013-04-06 11:33:25" }, "geometry": { "type": "Point", "coordinates": [ 16.918708999997712, 52.366571999992125 ] } },
{ "type": "Feature", "properties": { "id": 4666, "photo_id": "8622847000", "owner": "56249924@N03", "title": "Poznań City Center", "accuracy": 14, "place_id": "NAcWl6hUU74GcNA", "tags": "city white black poland center poznań", "lat": 52.402366, "lon": 16.913709, "data": "2013-04-05 11:47:40" }, "geometry": { "type": "Point", "coordinates": [ 16.913708999997699, 52.402365999992028 ] } },
{ "type": "Feature", "properties": { "id": 4667, "photo_id": "8619407601", "owner": "30101290@N06", "title": "autumn bokeh", "accuracy": 13, "place_id": "NAcWl6hUU74GcNA", "tags": "film zeiss kodak trix cm hasselblad 400 carl 500 expired opton", "lat": 52.431106, "lon": 16.910963, "data": "2013-04-04 22:38:48" }, "geometry": { "type": "Point", "coordinates": [ 16.91096299999769, 52.431105999991964 ] } },
{ "type": "Feature", "properties": { "id": 4668, "photo_id": "8620508816", "owner": "30101290@N06", "title": "wata", "accuracy": 13, "place_id": "ADQjoDBVW73pk5Q", "tags": "crossprocessed nikon f100 nikkor agfa poznań rusałka c41 precisa ct100 tetenal colortec 357028", "lat": 52.425977, "lon": 16.885557, "data": "2013-04-04 22:31:09" }, "geometry": { "type": "Point", "coordinates": [ 16.885556999997558, 52.425976999991363 ] } },
{ "type": "Feature", "properties": { "id": 4669, "photo_id": "8619164333", "owner": "91186142@N03", "title": "Mercedes Actros MP3 LH \"Sun Chemical\" (D)", "accuracy": 13, "place_id": "lPGt2e9TVrNKn5YxHg", "tags": null, "lat": 52.345197, "lon": 17.007265, "data": "2013-04-02 12:04:00" }, "geometry": { "type": "Point", "coordinates": [ 17.007264999998121, 52.345196999993931 ] } },
{ "type": "Feature", "properties": { "id": 4670, "photo_id": "8619165501", "owner": "91186142@N03", "title": "Mercedes Actros MP2 L \"Sovtransavto\"", "accuracy": 13, "place_id": "lPGt2e9TVrNKn5YxHg", "tags": null, "lat": 52.345092, "lon": 17.007093, "data": "2013-04-02 11:52:45" }, "geometry": { "type": "Point", "coordinates": [ 17.007092999998122, 52.345091999993933 ] } },
{ "type": "Feature", "properties": { "id": 4672, "photo_id": "8620269610", "owner": "91186142@N03", "title": "DAF XF105 SC \"Autokombinat no.3\" (BY)", "accuracy": 13, "place_id": "lPGt2e9TVrNKn5YxHg", "tags": null, "lat": 52.345197, "lon": 17.006921, "data": "2013-04-02 12:11:23" }, "geometry": { "type": "Point", "coordinates": [ 17.006920999998119, 52.345196999993924 ] } },
{ "type": "Feature", "properties": { "id": 4674, "photo_id": "8620269230", "owner": "91186142@N03", "title": "DAF XF105 SSC \"Foley Transport\" (IRL)", "accuracy": 13, "place_id": "lPGt2e9TVrNKn5YxHg", "tags": null, "lat": 52.345302, "lon": 17.006921, "data": "2013-04-02 11:48:28" }, "geometry": { "type": "Point", "coordinates": [ 17.006920999998119, 52.345301999993936 ] } },
{ "type": "Feature", "properties": { "id": 4676, "photo_id": "8620266242", "owner": "91186142@N03", "title": "Volvo FH GL \"Transit\/Euro Trans Wheel\" (BY)", "accuracy": 13, "place_id": "lPGt2e9TVrNKn5YxHg", "tags": null, "lat": 52.344988, "lon": 17.007265, "data": "2013-04-02 12:10:10" }, "geometry": { "type": "Point", "coordinates": [ 17.007264999998121, 52.344987999993933 ] } },
{ "type": "Feature", "properties": { "id": 4677, "photo_id": "8620268576", "owner": "91186142@N03", "title": "Scania R400 HL \"WACS\" (CZ)", "accuracy": 13, "place_id": "lPGt2e9TVrNKn5YxHg", "tags": null, "lat": 52.345302, "lon": 17.007265, "data": "2013-04-02 11:53:39" }, "geometry": { "type": "Point", "coordinates": [ 17.007264999998121, 52.345301999993943 ] } },
{ "type": "Feature", "properties": { "id": 4679, "photo_id": "8618865833", "owner": "15382573@N06", "title": "Purple bicycle", "accuracy": 16, "place_id": "NAcWl6hUU74GcNA", "tags": "street bicycle purple iphone anticrop iphoneography snapseed", "lat": 52.410606, "lon": 16.93176, "data": "2013-04-04 19:04:19" }, "geometry": { "type": "Point", "coordinates": [ 16.931759999997791, 52.410605999992441 ] } },
{ "type": "Feature", "properties": { "id": 4680, "photo_id": "8619900342", "owner": "54615916@N03", "title": "three days ago ...spring ???", "accuracy": 16, "place_id": "NAcWl6hUU74GcNA", "tags": "bestcapturesaoi", "lat": 52.369939, "lon": 16.922829, "data": "2013-04-04 18:35:07" }, "geometry": { "type": "Point", "coordinates": [ 16.922828999997733, 52.369938999992243 ] } },
{ "type": "Feature", "properties": { "id": 4681, "photo_id": "8619736064", "owner": "94126957@N08", "title": "Scania RII Topline \"Jakar\" (PL)", "accuracy": 16, "place_id": "NAcWl6hUU74GcNA", "tags": null, "lat": 52.352229, "lon": 16.9213, "data": "2013-04-04 12:35:27" }, "geometry": { "type": "Point", "coordinates": [ 16.921299999997718, 52.352228999992199 ] } },
{ "type": "Feature", "properties": { "id": 4682, "photo_id": "8618612233", "owner": "94126957@N08", "title": "MAN TGX XXL (PL)", "accuracy": 16, "place_id": "NAcWl6hUU74GcNA", "tags": null, "lat": 52.352236, "lon": 16.920973, "data": "2013-04-04 12:16:28" }, "geometry": { "type": "Point", "coordinates": [ 16.920972999997716, 52.352235999992196 ] } },
{ "type": "Feature", "properties": { "id": 4683, "photo_id": "8619695416", "owner": "94126957@N08", "title": "DAF XF105 SSC \"Skat Transport\" (PL)", "accuracy": 16, "place_id": "NAcWl6hUU74GcNA", "tags": null, "lat": 52.352223, "lon": 16.921015, "data": "2013-04-04 12:13:04" }, "geometry": { "type": "Point", "coordinates": [ 16.921014999997716, 52.352222999992193 ] } },
{ "type": "Feature", "properties": { "id": 4684, "photo_id": "8616307981", "owner": "91186142@N03", "title": "Volvo FH GL \"Trans Petro-Color\" (PL)", "accuracy": 13, "place_id": "lPGt2e9TVrNKn5YxHg", "tags": null, "lat": 52.345092, "lon": 17.007265, "data": "2013-04-02 11:34:39" }, "geometry": { "type": "Point", "coordinates": [ 17.007264999998121, 52.34509199999394 ] } },
{ "type": "Feature", "properties": { "id": 4685, "photo_id": "8617414966", "owner": "91186142@N03", "title": "DAF CF SC \"Bertschi Poland\" (PL)", "accuracy": 13, "place_id": "lPGt2e9TVrNKn5YxHg", "tags": null, "lat": 52.345197, "lon": 17.007093, "data": "2013-04-02 11:25:55" }, "geometry": { "type": "Point", "coordinates": [ 17.007092999998122, 52.345196999993938 ] } },
{ "type": "Feature", "properties": { "id": 4732, "photo_id": "8594795721", "owner": "94443407@N06", "title": "DSC09146", "accuracy": 10, "place_id": "NAcWl6hUU74GcNA", "tags": null, "lat": 52.458519, "lon": 16.931991, "data": "2013-03-01 11:26:55" }, "geometry": { "type": "Point", "coordinates": [ 16.931990999997804, 52.458518999992442 ] } },
{ "type": "Feature", "properties": { "id": 4687, "photo_id": "8617414010", "owner": "91186142@N03", "title": "Scania R420 TL (PL)", "accuracy": 13, "place_id": "lPGt2e9TVrNKn5YxHg", "tags": null, "lat": 52.344988, "lon": 17.007093, "data": "2013-04-02 11:38:00" }, "geometry": { "type": "Point", "coordinates": [ 17.007092999998122, 52.344987999993933 ] } },
{ "type": "Feature", "properties": { "id": 4688, "photo_id": "8617416602", "owner": "91186142@N03", "title": "Iveco Stralis ASII \"Sedan\" (PL)", "accuracy": 13, "place_id": "lPGt2e9TVrNKn5YxHg", "tags": null, "lat": 52.345092, "lon": 17.007436, "data": "2013-04-02 11:32:35" }, "geometry": { "type": "Point", "coordinates": [ 17.007435999998123, 52.34509199999394 ] } },
{ "type": "Feature", "properties": { "id": 4689, "photo_id": "8615524451", "owner": "40822096@N03", "title": "Moss", "accuracy": 16, "place_id": "hJ5sx5ZUU7OdGVc", "tags": null, "lat": 52.382902, "lon": 16.981305, "data": "2013-03-16 14:07:48" }, "geometry": { "type": "Point", "coordinates": [ 16.981304999998017, 52.382901999993457 ] } },
{ "type": "Feature", "properties": { "id": 4690, "photo_id": "8616628608", "owner": "40822096@N03", "title": "Cranes are back", "accuracy": 16, "place_id": "BKABEM1TVrMaRwkCzg", "tags": null, "lat": 52.475511, "lon": 17.126466, "data": "2013-03-16 15:08:35" }, "geometry": { "type": "Point", "coordinates": [ 17.126465999998619, 52.475510999995805 ] } },
{ "type": "Feature", "properties": { "id": 4691, "photo_id": "8616599394", "owner": "40822096@N03", "title": "Cranes are back", "accuracy": 16, "place_id": "BKABEM1TVrMaRwkCzg", "tags": null, "lat": 52.486311, "lon": 17.123333, "data": "2013-03-16 14:45:32" }, "geometry": { "type": "Point", "coordinates": [ 17.12333299999861, 52.486310999995759 ] } },
{ "type": "Feature", "properties": { "id": 4693, "photo_id": "8616405012", "owner": "96607149@N00", "title": "4 kwietnia 2013, godzina 9.coś \/ Poznań \/ Morasko", "accuracy": 14, "place_id": "YZM.NWtUULo_HUY", "tags": null, "lat": 52.486229, "lon": 16.899676, "data": "2013-04-03 04:06:12" }, "geometry": { "type": "Point", "coordinates": [ 16.899675999997655, 52.486228999991695 ] } },
{ "type": "Feature", "properties": { "id": 4694, "photo_id": "8615121305", "owner": "30101290@N06", "title": "SU45-089", "accuracy": 15, "place_id": "NAcWl6hUU74GcNA", "tags": "poznań pkp kolej pociąg wilda wola interregio su45 78115 przewozy regionalne su45089", "lat": 52.439373, "lon": 16.841075, "data": "2013-04-02 15:11:33" }, "geometry": { "type": "Point", "coordinates": [ 16.841074999997328, 52.439372999990212 ] } },
{ "type": "Feature", "properties": { "id": 4699, "photo_id": "8614506182", "owner": "91186142@N03", "title": "Volvo FH08 GL XL \"Repiński\" (PL)", "accuracy": 14, "place_id": "oHr._2tUUL7zvVY", "tags": null, "lat": 52.391944, "lon": 16.885685, "data": "2013-03-22 13:17:22" }, "geometry": { "type": "Point", "coordinates": [ 16.885684999997547, 52.391943999991369 ] } },
{ "type": "Feature", "properties": { "id": 4700, "photo_id": "8614186328", "owner": "91186142@N03", "title": "Mercedes Actros MP4 StreamSpace \"Quiza\" (PL)", "accuracy": 14, "place_id": "N66hxuBTVrN1heKtCQ", "tags": null, "lat": 52.32915, "lon": 17.092194, "data": "2013-04-02 13:31:59" }, "geometry": { "type": "Point", "coordinates": [ 17.092193999998464, 52.329149999995323 ] } },
{ "type": "Feature", "properties": { "id": 4701, "photo_id": "8614123582", "owner": "91186142@N03", "title": "Mercedes Actros MP4 BigSpace \"Log-In\" (D)", "accuracy": 14, "place_id": "lPGt2e9TVrNKn5YxHg", "tags": null, "lat": 52.345197, "lon": 17.006964, "data": "2013-04-02 11:33:28" }, "geometry": { "type": "Point", "coordinates": [ 17.006963999998121, 52.345196999993938 ] } },
{ "type": "Feature", "properties": { "id": 4702, "photo_id": "8614124036", "owner": "91186142@N03", "title": "Mercedes Actros MP4 GigaSpace", "accuracy": 14, "place_id": "lPGt2e9TVrNKn5YxHg", "tags": null, "lat": 52.345302, "lon": 17.007136, "data": "2013-04-02 13:06:57" }, "geometry": { "type": "Point", "coordinates": [ 17.00713599999812, 52.345301999993936 ] } },
{ "type": "Feature", "properties": { "id": 4703, "photo_id": "8614122686", "owner": "91186142@N03", "title": "Mercedes Actros MP4 BigSpace \"Daw-Trans\" (PL)", "accuracy": 14, "place_id": "lPGt2e9TVrNKn5YxHg", "tags": null, "lat": 52.345145, "lon": 17.007136, "data": "2013-04-02 12:16:45" }, "geometry": { "type": "Point", "coordinates": [ 17.00713599999812, 52.345144999993948 ] } },
{ "type": "Feature", "properties": { "id": 4706, "photo_id": "8614123106", "owner": "91186142@N03", "title": "Mercedes Actros MP4 GigaSpace \"EPO Trans\" (PL)", "accuracy": 14, "place_id": "lPGt2e9TVrNKn5YxHg", "tags": null, "lat": 52.34525, "lon": 17.006793, "data": "2013-04-02 12:07:39" }, "geometry": { "type": "Point", "coordinates": [ 17.006792999998119, 52.345249999993932 ] } },
{ "type": "Feature", "properties": { "id": 4707, "photo_id": "8612114423", "owner": "40822096@N03", "title": "Hope it saved the snail", "accuracy": 16, "place_id": "ZQbbMSdUULtA.mg", "tags": null, "lat": 52.427161, "lon": 17.077633, "data": "2013-03-03 12:33:30" }, "geometry": { "type": "Point", "coordinates": [ 17.077632999998428, 52.427160999995102 ] } },
{ "type": "Feature", "properties": { "id": 4715, "photo_id": "8609293204", "owner": "75147821@N02", "title": "world's biggest cat", "accuracy": 11, "place_id": "NAcWl6hUU74GcNA", "tags": "film analog cat 35mm iso200 kodak ewa kodakgold200 2013 olympustrip600", "lat": 52.411215, "lon": 16.938171, "data": "2013-02-01 00:00:00" }, "geometry": { "type": "Point", "coordinates": [ 16.938170999997823, 52.411214999992566 ] } },
{ "type": "Feature", "properties": { "id": 4716, "photo_id": "8603426573", "owner": "75147821@N02", "title": null, "accuracy": 11, "place_id": "NAcWl6hUU74GcNA", "tags": "winter film cat 35mm iso200 kodak kodakgold200 2013 olympustrip600", "lat": 52.415822, "lon": 16.938858, "data": "2013-02-01 00:00:00" }, "geometry": { "type": "Point", "coordinates": [ 16.938857999997825, 52.415821999992581 ] } },
{ "type": "Feature", "properties": { "id": 4717, "photo_id": "8603596398", "owner": "71408778@N04", "title": "Pralnia dywanów Poznań", "accuracy": 16, "place_id": "NAcWl6hUU74GcNA", "tags": "czyszczeniedywanówpoznań praniedywanówpoznań czyszczenietapicerkipoznań pralniadywanówpoznań pranietapicerkipoznań", "lat": 52.376961, "lon": 16.864861, "data": "2011-08-23 16:14:22" }, "geometry": { "type": "Point", "coordinates": [ 16.864860999997436, 52.376960999990843 ] } },
{ "type": "Feature", "properties": { "id": 4718, "photo_id": "8602889484", "owner": "54615916@N03", "title": "DSCF1764", "accuracy": 16, "place_id": "NAcWl6hUU74GcNA", "tags": null, "lat": 52.369048, "lon": 16.917035, "data": "2013-03-17 16:04:29" }, "geometry": { "type": "Point", "coordinates": [ 16.917034999997703, 52.369047999992098 ] } },
{ "type": "Feature", "properties": { "id": 4719, "photo_id": "8601557093", "owner": "75147821@N02", "title": null, "accuracy": 11, "place_id": "NAcWl6hUU74GcNA", "tags": "winter film 35mm iso200 ewa kodakgold200 2013 olympustrip600", "lat": 52.414147, "lon": 16.929931, "data": "2013-02-01 00:00:00" }, "geometry": { "type": "Point", "coordinates": [ 16.929930999997779, 52.41414699999239 ] } },
{ "type": "Feature", "properties": { "id": 4721, "photo_id": "8600119715", "owner": "80903539@N08", "title": "Malta", "accuracy": 16, "place_id": "NAcWl6hUU74GcNA", "tags": "city sunset lake building architecture night twilight nikon poland polska malta poznań posen", "lat": 52.406156, "lon": 16.957075, "data": "2011-10-12 18:11:56" }, "geometry": { "type": "Point", "coordinates": [ 16.957074999997907, 52.406155999992968 ] } },
{ "type": "Feature", "properties": { "id": 4722, "photo_id": "8599459177", "owner": "76142448@N04", "title": "wedding ring", "accuracy": 11, "place_id": "NAcWl6hUU74GcNA", "tags": "wedding love photo heart ring chain", "lat": 52.407026, "lon": 16.938858, "data": "2012-08-23 17:04:51" }, "geometry": { "type": "Point", "coordinates": [ 16.938857999997822, 52.407025999992577 ] } },
{ "type": "Feature", "properties": { "id": 4723, "photo_id": "8600229548", "owner": "77555081@N02", "title": "VW golf I", "accuracy": 16, "place_id": "NAcWl6hUU74GcNA", "tags": "auto winter red snow classic car vw golf volkswagen voiture poznan youngtimer 2013 i", "lat": 52.398844, "lon": 16.906371, "data": "2013-03-08 14:55:58" }, "geometry": { "type": "Point", "coordinates": [ 16.906370999997659, 52.398843999991861 ] } },
{ "type": "Feature", "properties": { "id": 4724, "photo_id": "8599835442", "owner": "75147821@N02", "title": null, "accuracy": 11, "place_id": "NAcWl6hUU74GcNA", "tags": "film analog 35mm iso200 poznań kodakgold200 2013 olympustrip600", "lat": 52.408283, "lon": 16.937484, "data": "2013-02-01 00:00:00" }, "geometry": { "type": "Point", "coordinates": [ 16.93748399999782, 52.408282999992551 ] } },
{ "type": "Feature", "properties": { "id": 4725, "photo_id": "8598337379", "owner": "51066508@N02", "title": "Renaissance", "accuracy": 16, "place_id": "hJ5sx5ZUU7OdGVc", "tags": "urban architecture polska townhall renaissance poznań poznan wielkopolska ratusz greaterpoland eos600d", "lat": 52.408689, "lon": 16.933836, "data": "2013-02-03 12:36:35" }, "geometry": { "type": "Point", "coordinates": [ 16.933835999997797, 52.408688999992478 ] } },
{ "type": "Feature", "properties": { "id": 4726, "photo_id": "8599437430", "owner": "51066508@N02", "title": "Inbetween", "accuracy": 16, "place_id": "hJ5sx5ZUU7OdGVc", "tags": "urban portraits streetphotography poland polska poznań poznan wielkopolska greaterpoland eos600d", "lat": 52.408689, "lon": 16.933922, "data": "2013-02-03 12:39:34" }, "geometry": { "type": "Point", "coordinates": [ 16.933921999997796, 52.408688999992471 ] } },
{ "type": "Feature", "properties": { "id": 4727, "photo_id": "8598986290", "owner": "75147821@N02", "title": null, "accuracy": 11, "place_id": "NAcWl6hUU74GcNA", "tags": "film analog cat 35mm iso200 kodakgold200 2013 olympustrip600", "lat": 52.409121, "lon": 16.934738, "data": "2013-02-01 00:00:00" }, "geometry": { "type": "Point", "coordinates": [ 16.934737999997804, 52.409120999992503 ] } },
{ "type": "Feature", "properties": { "id": 4728, "photo_id": "8598373924", "owner": "75147821@N02", "title": "winterwonderland", "accuracy": 11, "place_id": "NAcWl6hUU74GcNA", "tags": "winter 35mm iso200 kodak winterwonderland poznań kodakgold200 2013 olympustrip600", "lat": 52.405351, "lon": 16.937484, "data": "2013-02-01 00:00:00" }, "geometry": { "type": "Point", "coordinates": [ 16.937483999997816, 52.405350999992564 ] } },
{ "type": "Feature", "properties": { "id": 4730, "photo_id": "8596492129", "owner": "91186142@N03", "title": "Scania R500 V8 TL \"Czenczek\" (PL)", "accuracy": 14, "place_id": "N66hxuBTVrN1heKtCQ", "tags": null, "lat": 52.327681, "lon": 17.092537, "data": "2012-07-12 11:40:50" }, "geometry": { "type": "Point", "coordinates": [ 17.092536999998465, 52.32768099999533 ] } },
{ "type": "Feature", "properties": { "id": 4731, "photo_id": "8594798675", "owner": "94443407@N06", "title": "DSC08674", "accuracy": 10, "place_id": "NAcWl6hUU74GcNA", "tags": null, "lat": 52.455172, "lon": 16.911392, "data": "2013-02-24 14:28:25" }, "geometry": { "type": "Point", "coordinates": [ 16.911391999997704, 52.455171999991975 ] } },
{ "type": "Feature", "properties": { "id": 4733, "photo_id": "8594799069", "owner": "94443407@N06", "title": "DSC08669", "accuracy": 10, "place_id": "NAcWl6hUU74GcNA", "tags": null, "lat": 52.459356, "lon": 16.914138, "data": "2013-02-24 14:28:16" }, "geometry": { "type": "Point", "coordinates": [ 16.914137999997717, 52.459355999992042 ] } },
{ "type": "Feature", "properties": { "id": 4734, "photo_id": "8595900214", "owner": "94443407@N06", "title": "DSC08654", "accuracy": 10, "place_id": "NAcWl6hUU74GcNA", "tags": null, "lat": 52.460193, "lon": 16.918258, "data": "2013-02-24 14:26:46" }, "geometry": { "type": "Point", "coordinates": [ 16.918257999997738, 52.460192999992117 ] } },
{ "type": "Feature", "properties": { "id": 4735, "photo_id": "8595872254", "owner": "94443407@N06", "title": "DSC05216", "accuracy": 10, "place_id": "NAcWl6hUU74GcNA", "tags": null, "lat": 52.413309, "lon": 16.949844, "data": "2011-03-30 17:38:32" }, "geometry": { "type": "Point", "coordinates": [ 16.949843999997874, 52.413308999992822 ] } },
{ "type": "Feature", "properties": { "id": 4736, "photo_id": "8594772007", "owner": "94443407@N06", "title": "DSC05159", "accuracy": 10, "place_id": "NAcWl6hUU74GcNA", "tags": null, "lat": 52.470233, "lon": 16.934738, "data": "2011-03-30 17:32:13" }, "geometry": { "type": "Point", "coordinates": [ 16.934737999997822, 52.470232999992483 ] } },
{ "type": "Feature", "properties": { "id": 4737, "photo_id": "8594772579", "owner": "94443407@N06", "title": "DSC03278", "accuracy": 10, "place_id": "NAcWl6hUU74GcNA", "tags": null, "lat": 52.449314, "lon": 16.919631, "data": "2010-10-09 13:58:53" }, "geometry": { "type": "Point", "coordinates": [ 16.919630999997739, 52.449313999992164 ] } },
{ "type": "Feature", "properties": { "id": 4738, "photo_id": "8595872036", "owner": "94443407@N06", "title": "DSC05817", "accuracy": 10, "place_id": "NAcWl6hUU74GcNA", "tags": null, "lat": 52.406607, "lon": 16.925125, "data": "2011-05-21 17:20:00" }, "geometry": { "type": "Point", "coordinates": [ 16.925124999997756, 52.406606999992277 ] } },
{ "type": "Feature", "properties": { "id": 4739, "photo_id": "8594772897", "owner": "94443407@N06", "title": "DSC03083", "accuracy": 10, "place_id": "NAcWl6hUU74GcNA", "tags": null, "lat": 52.457683, "lon": 16.926498, "data": "2010-10-03 14:03:58" }, "geometry": { "type": "Point", "coordinates": [ 16.926497999997775, 52.457682999992308 ] } },
{ "type": "Feature", "properties": { "id": 4740, "photo_id": "8594771187", "owner": "94443407@N06", "title": "DSC06352", "accuracy": 10, "place_id": "NAcWl6hUU74GcNA", "tags": null, "lat": 52.40577, "lon": 16.960144, "data": "2009-04-24 14:46:57" }, "geometry": { "type": "Point", "coordinates": [ 16.960143999997925, 52.405769999993026 ] } },
{ "type": "Feature", "properties": { "id": 4741, "photo_id": "8594772149", "owner": "94443407@N06", "title": "DSC05128", "accuracy": 10, "place_id": "NAcWl6hUU74GcNA", "tags": null, "lat": 52.446803, "lon": 16.922378, "data": "2011-03-30 17:17:29" }, "geometry": { "type": "Point", "coordinates": [ 16.922377999997753, 52.446802999992229 ] } },
{ "type": "Feature", "properties": { "id": 4742, "photo_id": "8594772355", "owner": "94443407@N06", "title": "DSC03428", "accuracy": 10, "place_id": "NAcWl6hUU74GcNA", "tags": null, "lat": 52.457683, "lon": 16.915512, "data": "2009-11-18 12:36:11" }, "geometry": { "type": "Point", "coordinates": [ 16.915511999997722, 52.457682999992073 ] } },
{ "type": "Feature", "properties": { "id": 4743, "photo_id": "8595873720", "owner": "94443407@N06", "title": "DSC01194", "accuracy": 10, "place_id": "NAcWl6hUU74GcNA", "tags": null, "lat": 52.457683, "lon": 16.927871, "data": "2010-03-29 12:14:24" }, "geometry": { "type": "Point", "coordinates": [ 16.927870999997786, 52.457682999992343 ] } },
{ "type": "Feature", "properties": { "id": 4744, "photo_id": "8594707963", "owner": "94443407@N06", "title": "DSC05678", "accuracy": 13, "place_id": "NAcWl6hUU74GcNA", "tags": null, "lat": 52.48278, "lon": 16.910963, "data": "2011-05-07 12:35:17" }, "geometry": { "type": "Point", "coordinates": [ 16.910962999997707, 52.482779999991955 ] } },
{ "type": "Feature", "properties": { "id": 4745, "photo_id": "8594708221", "owner": "94443407@N06", "title": "DSC03342", "accuracy": 6, "place_id": "NAcWl6hUU74GcNA", "tags": null, "lat": 52.402418, "lon": 16.973876, "data": "2009-11-13 11:28:37" }, "geometry": { "type": "Point", "coordinates": [ 16.97387599999799, 52.40241799999329 ] } },
{ "type": "Feature", "properties": { "id": 4746, "photo_id": "8594707551", "owner": "94443407@N06", "title": "DSC05705", "accuracy": 11, "place_id": "NAcWl6hUU74GcNA", "tags": null, "lat": 52.408702, "lon": 16.937828, "data": "2011-05-08 07:13:35" }, "geometry": { "type": "Point", "coordinates": [ 16.937827999997818, 52.408701999992566 ] } },
{ "type": "Feature", "properties": { "id": 4747, "photo_id": "8593944337", "owner": "40822096@N03", "title": "Dinner time", "accuracy": 16, "place_id": "NAcWl6hUU74GcNA", "tags": null, "lat": 52.384369, "lon": 16.984941, "data": "2013-02-06 10:35:22" }, "geometry": { "type": "Point", "coordinates": [ 16.984940999998031, 52.384368999993526 ] } },
{ "type": "Feature", "properties": { "id": 4748, "photo_id": "8595057508", "owner": "40822096@N03", "title": "Into the bushes", "accuracy": 16, "place_id": "NAcWl6hUU74GcNA", "tags": null, "lat": 52.38398, "lon": 16.984794, "data": "2013-02-06 10:43:43" }, "geometry": { "type": "Point", "coordinates": [ 16.984793999998033, 52.383979999993528 ] } },
{ "type": "Feature", "properties": { "id": 4749, "photo_id": "8593942089", "owner": "40822096@N03", "title": "The Majestic Moon", "accuracy": 16, "place_id": "hJ5sx5ZUU7OdGVc", "tags": null, "lat": 52.381911, "lon": 16.980661, "data": "2013-01-25 20:05:15" }, "geometry": { "type": "Point", "coordinates": [ 16.980660999998015, 52.381910999993444 ] } },
{ "type": "Feature", "properties": { "id": 4751, "photo_id": "8593945117", "owner": "40822096@N03", "title": "Bad landing?", "accuracy": 16, "place_id": "NAcWl6hUU74GcNA", "tags": null, "lat": 52.383344, "lon": 16.983744, "data": "2013-02-06 10:36:37" }, "geometry": { "type": "Point", "coordinates": [ 16.983743999998026, 52.3833439999935 ] } },
{ "type": "Feature", "properties": { "id": 4752, "photo_id": "8593691428", "owner": "54615916@N03", "title": "DSCF1670", "accuracy": 16, "place_id": "NAcWl6hUU74GcNA", "tags": null, "lat": 52.366611, "lon": 16.917786, "data": "2013-03-17 15:45:17" }, "geometry": { "type": "Point", "coordinates": [ 16.917785999997704, 52.366610999992119 ] } },
{ "type": "Feature", "properties": { "id": 4753, "photo_id": "8590141391", "owner": "69185000@N03", "title": "113.", "accuracy": 16, "place_id": "NAcWl6hUU74GcNA", "tags": "street bw print poland neopan inside poznan xtol contaxg2 2013", "lat": 52.407746, "lon": 16.927056, "data": "2013-03-26 00:00:11" }, "geometry": { "type": "Point", "coordinates": [ 16.927055999997766, 52.407745999992329 ] } },
{ "type": "Feature", "properties": { "id": 4756, "photo_id": "8588239868", "owner": "79889802@N04", "title": "Lubię to zdjęcie.", "accuracy": 15, "place_id": "hJ5sx5ZUU7OdGVc", "tags": "czech poznań dragi flickrandroidapp:filter=none", "lat": 52.412903, "lon": 16.936562, "data": "2013-03-25 02:11:45" }, "geometry": { "type": "Point", "coordinates": [ 16.936561999997814, 52.412902999992525 ] } },
{ "type": "Feature", "properties": { "id": 4757, "photo_id": "8588239416", "owner": "79889802@N04", "title": "E.T!", "accuracy": 16, "place_id": "hJ5sx5ZUU7OdGVc", "tags": "poznań dragi flickrandroidapp:filter=none", "lat": 52.409376, "lon": 16.933847, "data": "2013-03-25 02:07:53" }, "geometry": { "type": "Point", "coordinates": [ 16.933846999997801, 52.409375999992463 ] } },
{ "type": "Feature", "properties": { "id": 4758, "photo_id": "8587187350", "owner": "78013241@N07", "title": "disguised scouts + Neptune's Fountain", "accuracy": 16, "place_id": "hJ5sx5ZUU7OdGVc", "tags": "winter canon soldier scout poznań poznan 650d 18135mm", "lat": 52.407916, "lon": 16.932849, "data": "2013-03-23 10:56:38" }, "geometry": { "type": "Point", "coordinates": [ 16.932848999997795, 52.407915999992454 ] } },
{ "type": "Feature", "properties": { "id": 4759, "photo_id": "8586103435", "owner": "78013241@N07", "title": "IMG_1574_", "accuracy": 16, "place_id": "hJ5sx5ZUU7OdGVc", "tags": "winter canon soldier scout poznań poznan 650d 18135mm", "lat": 52.406477, "lon": 16.928408, "data": "2013-03-23 11:19:36" }, "geometry": { "type": "Point", "coordinates": [ 16.928407999997773, 52.406476999992357 ] } },
{ "type": "Feature", "properties": { "id": 4760, "photo_id": "8587214842", "owner": "78013241@N07", "title": "Hygieia's Fountain in front of the Raczyński Library", "accuracy": 16, "place_id": "hJ5sx5ZUU7OdGVc", "tags": "winter canon soldier scout poznań poznan 650d 18135mm", "lat": 52.40806, "lon": 16.928751, "data": "2013-03-23 11:24:47" }, "geometry": { "type": "Point", "coordinates": [ 16.928750999997771, 52.408059999992368 ] } },
{ "type": "Feature", "properties": { "id": 4761, "photo_id": "8587166026", "owner": "78013241@N07", "title": "Wielka Street", "accuracy": 16, "place_id": "hJ5sx5ZUU7OdGVc", "tags": "winter canon soldier scout poznań poznan 650d 18135mm", "lat": 52.408519, "lon": 16.938235, "data": "2013-03-23 10:30:27" }, "geometry": { "type": "Point", "coordinates": [ 16.938234999997821, 52.408518999992566 ] } },
{ "type": "Feature", "properties": { "id": 4762, "photo_id": "8586147827", "owner": "78013241@N07", "title": "Fara", "accuracy": 16, "place_id": "hJ5sx5ZUU7OdGVc", "tags": "winter canon soldier scout poznań poznan 650d 18135mm", "lat": 52.405285, "lon": 16.933879, "data": "2013-03-23 14:36:53" }, "geometry": { "type": "Point", "coordinates": [ 16.933878999997798, 52.405284999992467 ] } },
{ "type": "Feature", "properties": { "id": 4763, "photo_id": "8586150501", "owner": "78013241@N07", "title": "IMG_1723_", "accuracy": 16, "place_id": "hJ5sx5ZUU7OdGVc", "tags": "winter canon soldier scout poznań poznan 650d 18135mm", "lat": 52.406228, "lon": 16.932957, "data": "2013-03-23 14:40:30" }, "geometry": { "type": "Point", "coordinates": [ 16.932956999997792, 52.406227999992453 ] } },
{ "type": "Feature", "properties": { "id": 4764, "photo_id": "8586100603", "owner": "78013241@N07", "title": "Plac Wolności", "accuracy": 16, "place_id": "hJ5sx5ZUU7OdGVc", "tags": "winter canon soldier scout poznań poznan 650d 18135mm", "lat": 52.4081, "lon": 16.92903, "data": "2013-03-23 11:14:44" },